Frame,Latitude,Longitude,Location,Defects,Defect Count
frame_00000.jpg,19.131049,74.728354,"Ahmadnagar, Maharashtra, India, Sai Mauli Super Speciality Hospital Ashtavinayak Colony,, Nandanvan Nagar, Pipeline Rd, Ashtavinayak Colony, Savedi,, Ahmadnagar, Maharashtra 414003, India",None,0
frame_00001.jpg,19.13107,74.728274,"Ahmadnagar, Maharashtra, India, India, Pipeline Rd, Near Tulajabhavani Mandir, Ashtavinayak, Colony, Savedi, Ahmadnagar, Maharashtra 414003, India",None,0
frame_00002.jpg,19.131096,74.728169,"Ahmadnagar, Maharashtra, India, 1, Pipeline Rd, Savedi, Ahmadnagar, Maharashtra, 414003, India",None,0
frame_00003.jpg,19.131124,74.728054,"Ahmadnagar, Maharashtra, India, 1, Pipeline Rd, Savedi, Anmadnagar, Maharashtra, 414003, India",None,0
frame_00004.jpg,19.131154,74.727926,"Ahmadnagar, Maharashtra, India, Shop No. 2, Shraddha Lifestyle, Pipeline Rd, Opp., Tuljabhavani Mandir, Savedi, Anhmadnagar, Maharashtra, 414003, India",None,0
frame_00005.jpg,19.131154,74.727926,"Ahmadnagar, Maharashtra, India, Shop No. 2, Shraddha Lifestyle, Pipeline Rd, Opp., Tuljabhavani Mandir, Savedi, Ahmadnagar, Maharashtra, 414003, India",None,0
frame_00006.jpg,19.131184,74.72779,"Ahmadnagar, Maharashtra, India, Mahadev Apartments, Nandanvan Nagar,, Ahmadnagar, Maharashtra 414003, India",None,0
frame_00007.jpg,19.131239,74.72752,"SeAeaae, Maharashtra, India, A4pjg+fxw, Pipeline Rd, Nandanvan Nagar, Heder,, Maharashtra 414003, India",None,0
frame_00008.jpg,19.131306,74.727236,"seed, Maharashtra, India, Shop No, 1, Pipeline Rd, Savedi, Hele,, Maharashtra 414003, India, A Lat 19.131306° Long 74.727236° Ss",None,0
frame_00009.jpg,19.131333,74.727099,"927211 42 79, ! 7498735193, Ahmadnagar, Maharashtra, India, A4pjg+frv, Pipeline Rd, Near My Cinema Esquare,, Savedi, Ahmadnagar, Maharashtra 414003, India, i ‘ >. : = ay ' = ; r J ""4 * 2 ms), x a t ae ‘ - - L nm .",None,0
frame_00010.jpg,19.131333,74.727099,"Ahmadnagar, MaharasnNtra, India, 4pjg+frv, Pipeline Rd, Near My Cinema Esquare,, Savedi, Anmadnagar, Maharashtra 414003, India, » Lat 19.131333° Long 74.727099°, aa > 7",None,0
frame_00011.jpg,19.131361,74.726965,"Ahmadnagar, Maharashtra, India, Apjg+frv, Pipeline Rd, Near My Cinema Esquare,, Savedi, Anmadnagar, Maharashtra 414003, India, _ Lat 19.131361° Long 74.726965°",None,0
frame_00012.jpg,19.131393,74.72683,"Ahmadnagar, Maharashtra, India, 41, Savedi, Anmadnagar, Maharashtra 414003, India",None,0
frame_00013.jpg,19.131393,74.72683,"Ahmadnagar, Maharashtra, India, 41, Savedi, Anmadnagar, Maharashtra 414003, India",None,0
frame_00014.jpg,19.131456,74.726555,"Ahmadnagar, MaharasnNtra, India, 41, Savedi, Anmadnagar, Maharashtra 414003, India",None,0
frame_00015.jpg,19.131509,74.726264,"Vax AN a a, Ahmadnagar, Maharashtra, India, A4pjg+p82, Sneha Nagari, Nandanvan Nagar,, Ahmadnagar, Maharashtra 414003, India",None,0
frame_00016.jpg,19.131509,74.726264,"| Sy gence lr b, Ahmadnagar, Maharashtra, India (yay, A4pjg+p82, Sneha Nagari, Nandanvan Nagar, *, Ahmadnagar, Maharashtra 414003, India, “at j Lat 19.131509° Long 74.726264°",None,0
frame_00017.jpg,19.131539,74.726123,"Ahmadnagar, Maharashtra, India, 4pjg+p82, Sneha Nagari, Nandanvan Nagar,, Ahmadnagar, Maharashtra 414003, India",None,0
frame_00018.jpg,19.131576,74.725983,"Ahmadnagar, Maharashtra, India, 4pjg+p82, Sneha Nagari, Nandanvan Nagar,, Ahmadnagar, Maharashtra 414003, India",None,0
frame_00019.jpg,19.131772,74.72518,"Ahmadnagar, MaharasnNtra, India, 2, Pipeline Rd, Savedi, Anmadnagar, Maharashtra, 414003, India",None,0
frame_00020.jpg,19.13181,74.725045,"=i Wy, ran TATA, Sesensccisl)  oo.,, ee |, Ahmadnagar, MaharasnNtra, India, | 2, Pipeline Rd, Savedi, Anmadnagar, Maharashtra, 414003, India, | ha ee Pe, Ls ve |",None,0
frame_00021.jpg,19.13181,74.725045,"aN ih ne He, mn — maa mitt mT, ‘. Aske bis 51 ali, a a — eal wy, Ahmadnagar, Maharashtra, India, 2, Pipeline Rd, Savedi, Anmadnagar, Maharashtra, 414003, India",manhole: 1,1
frame_00022.jpg,19.131848,74.724904,"Ahmadnagar, MaharasnNtra, India, Shop 2, Pipeline Rd, Savedi, Anmadnagar,, Maharashtra 414001, India, wee Lat 19.131848° Long 74.724904°, et art, 1 TU, PTTL",None,0
frame_00023.jpg,19.131848,74.724904,"wit mo mitt, me Hw), ma mi ws, i iL U, Ahmadnagar, Maharashtra, India =, Shop 2, Pipeline Rd, Savedi, Anmadnagar,, Maharashtra 414001, India, pees Lat 19.131848° Long 74.724904°, Miia",None,0
frame_00024.jpg,19.132106,74.723501,"Ahmadnagar, MaharasnNtra, India, Apjf+qjg, Pipeline Rd, Don Bosco Area,, Ahmadnagar, Maharashtra 414003, India",None,0
frame_00025.jpg,19.132106,74.723501,"Ahmadnagar, MaharasnNtra, India, Apjf+qjq, Pipeline Rd, Don Bosco Area,, Ahmadnagar, Maharashtra 414003, India",None,0
frame_00026.jpg,19.132034,74.723515,"~ Ahmadnagar, Maharashtra, India, ; _ 4pjf+aqjq, Pipeline Rd, Don Bosco Area,, ry ide Ahmadnagar, Maharashtra 414003, India Stee, or os Lat 19.132034° Long 74.723515° SS",None,0
frame_00027.jpg,19.132034,74.723515,"| ARTICO LIFTS i, | Genter 8 natety manors, Rise above, the, TIFZOOY FETTEHT pee, 6899 20502 / 96899 20520, Ahmadnagar, Maharashtra, India, Apjf+qjq, Pipeline Rd, Don Bosco Area, >, Ahmadnagar, Maharashtra 414003, India",None,0
frame_00028.jpg,19.12967,74.724668,"bitetere, SAS, Ahmadnagar, Maharashtra, India, 43, Highway, Savedi, Anhmadnagar, Maharashtra, 414003, India",None,0
frame_00029.jpg,19.129539,74.724731,"Ahmadnagar, Maharashtra, India ~, 43, Highway, Savedi, Ahmadnagar, Maharashtra, 414003, India",None,0
frame_00030.jpg,19.129539,74.724731,"nye, - ¢ se i, Ahmadnagar, Maharashtra, India, 43, Highway, Savedi, Ahmadnagar, Maharashtra, 414003, India",None,0
frame_00031.jpg,19.129402,74.724792,"i . s, a >}, a bf =,, AS kal Waa ome, ee g¢, ae we =, ‘ es a, , ad, Googlee. *, * Bon”, = fe, > Aphf+jv5, Savedi, Ahmadnagar, Maharashtra, Ahmadnagar, Maharashtra, India, 414003, India",None,0
frame_00032.jpg,19.125939,74.72643,"Ahmadnagar, Maharashtra, India, 323, Highway, Shree Siddhivinayak Colony, Savedi,, Ahmadnagar, Maharashtra 414003, India, NC iia Veo es",None,0
frame_00033.jpg,19.124825,74.726836,"AiroElevate | vear, BLDC Fan, Ahmadnagar, Maharashtra, India |, Sigs A4pfg+xj9, Savedi, Anhmadnagar, Maharashtra, * 414003, India",None,0
frame_00034.jpg,19.124554,74.726918,"Ahmadnagar, Maharashtra, India, 4pfg+mm4 Sai Nagar, 2, Savedi, Ahmadnagar,, Maharashtra 414003, India",None,0
frame_00035.jpg,19.124263,74.726989,"Ahmadnagar, Maharashtra, India, Sai Nagar, 2, Savedi, Anmadnagar, Maharashtra, 414003, India",None,0
frame_00036.jpg,Not found,Not found,"7] gtd, r, Maharashtra, 730, r, Maharashtra,, i, Ahmadnaga, Saved, Long 74.727028°, 32 AM GMT +05, Tare, Nagar, 2, 414003, Lat 19.124112°, 16/05/2025 11",None,0
frame_00037.jpg,19.123964,74.72707,"Ahmadnagar, Maharashtra, India, Nakshatra Height, 1st Floor, Plot No.6 Above Idbi Bank Old, Savedi Naka Nagar Manmad Road, Old, Savedi Naka Rd, Above, Idbi Bank, Savedi, Anmadnagar, Maharashtra 414003, India",None,0
frame_00038.jpg,19.123816,74.727116,"= lean ‘Oi = IMI, Ahmadnagar, Maharashtra, India, Nakshatra Height, 1st Floor, Plot No.6 Above Idbi Bank Old, Savedi Naka Nagar Manmad Road, Old, Savedi Naka Rd, Above, Idbi Bank, Savedi, Anmadnagar, Maharashtra 414003, India",None,0
frame_00039.jpg,19.123816,74.727116,"Ahmadnagar, Maharashtra, India, Nakshatra Height, 1st Floor, Plot No.6 Above Idbi Bank Old, Savedi Naka Nagar Manmad Road, Old, Savedi Naka Rd, Above, Idbi Bank, Savedi, Anmadnagar, Maharashtra 414003, India, e ts 1 i Pap Sy Soy ware P, DEMERS TS SCE, far RIAL hae Yt bs Say ste <>. ae",None,0
frame_00040.jpg,19.123663,74.727155,"Ahmadnagar, Maharashtra, India, 4/1, Sai Nagar, Savedi, Anmadnagar, Maharashtra |, 414003, India",None,0
frame_00041.jpg,Not found,Not found,"Ahmadnagar, Maharashtra, India ~, 4/1, Sai Nagar, Savedi, Anmadnagar, Maharashtra, 414003, India",None,0
frame_00042.jpg,19.123519,74.72719,"Ahmadnagar, Maharashtra, India, 4/1, Sai Nagar, Savedi, Anmadnagar, Maharashtra, 414003, India",None,0
frame_00043.jpg,19.123387,74.727219,"Ahmadnagar, Maharashtra, India, Shop No 8 ,dwarka Complex, Balikashram Rd, Opp. Essar",None,0
frame_00044.jpg,19.123258,74.727253,"Ahmadnagar, Maharashtra, India, Shop No 8 ,dwarka Complex, Balikashram Rd, Opp. Essar",None,0
frame_00045.jpg,19.123129,74.727288,"Ahmadnagar, Maharashtra, India, Shop No 8 ,dwarka Complex, Balikashram Rd, Opp. Essar S25, Petrol Pump, Savedi, Ahmadnagar, Maharashtra 414003, India es",None,0
frame_00046.jpg,19.123129,74.727288,"Ahmadnagar, Maharashtra, India, Shop No 8 ,dwarka Complex, Balikashram Rd, Opp. Essar, Petrol Pump, Savedi, Anmadnagar, Maharashtra 414003, India",None,0
frame_00047.jpg,Not found,Not found,"Ahmadnagar, Maharashtra, India, Shop No 8 ,dwarka Complex, Balikashram Rd, Opp. Essar ss, Petrol Pump, Savedi, Anmadnagar, Maharashtra 414003, India Rae, Lat 19.123° yong 74. 727323° SS",None,0
frame_00048.jpg,19.122861,74.727357,"Ahmadnagar, Maharashtra, India, 4pfg+5vc, Savedi, Anmadnagar, Maharashtra, 414003, India",None,0
frame_00049.jpg,19.122861,74.727357,"Tare!, Maharashtra, 32 AM GMT +05, Lae), Ww), 149), A4pfg+5vc, Savedi, Anmadnaga, 16/05/2025 11",None,0
frame_00050.jpg,19.122729,74.727395,"Ahmadnagar, Maharashtra, India, 14, Savedi Rd, Savedi, Anmadnagar, Maharashtra, 414003, India",None,0
frame_00051.jpg,19.122592,74.72743,"Ahmadnagar, Maharashtra, India, 14, Savedi Rd, Savedi, Anhmadnagar, Maharashtra, 414003, India",None,0
frame_00052.jpg,19.122592,74.72743,"Ahmadnagar, Maharashtra, India, 14, Savedi Rd, Savedi, Ahmadnagar, Maharashtra, 414003, India, 7 K-45 A =, | é 4, - “ . > a - = = . S = Aees? AY",None,0
frame_00053.jpg,19.122456,74.727473,"sede, Maharashtra, India, 14, Savedi Rd, Savedi, Seta, Maharashtra, 414003, India",None,0
frame_00054.jpg,1912232,74.727514,"Ahmadnagar, Maharashtra, India, Apch+w33, Kopargaon - Shirdi - Ahilyanagar - Pune, Hwy, Savedi, Anmadnagar, Maharashtra 414003, India, sa eS SS ee",None,0
frame_00055.jpg,19.12218,74.727531,"Ahmadnagar, MaharasnNtra, India, 4pch+w33, Kopargaon - Shirdi - Ahilyanagar - Pune, Hwy, Savedi, Anmadnagar, Maharashtra 414003, India",None,0
frame_00056.jpg,19.12218,74.727531,"“te, Ahmadnagar, Maharashtra, India, A4pch+w33, Kopargaon - Shirdi - Ahilyanagar - Pune, Hwy, Savedi, Anmadnagar, Maharashtra 414003, India",None,0
frame_00057.jpg,19.122049,74.72755,"Ahmadnagar, Maharashtra, India, Shop No 03, Plot No 2, Ahilyanagar- Manmad Rd, Near, Parichay Hotel, Savedi, Anmadnagar, Maharashtra 414003,, India",None,0
frame_00058.jpg,19.121922,74.727574,"it A i) |, m SUMTURAL FRUIT —y, Sasoe, Ahmadnagar, Maharashtra, India, Shop No 03, Plot No 2, Ahilyanagar- Manmad Rd, Near, Parichay Hotel, Savedi, Anmadnagar, Maharashtra 414003,, India, =) Lat 19.121922° Long 74.727574°",None,0
frame_00059.jpg,19.121922,74.727574,"Ahmadnagar, Maharashtra, India, Shop No 03, Plot No 2, Ahilyanagar- Manmad Rd, Near, Parichay Hotel, Savedi, Anhmadnagar, Maharashtra 414003,, India",None,0
frame_00060.jpg,19.121794,74.727609,"Ahmadnagar, Maharashtra, India, 4pcg+mxp, Savedi, Ahmadnagar, Maharashtra, 414003, India",None,0
frame_00061.jpg,19.119881,74.728332,"Ahmadnagar, Maharashtra, India, 4p9h+w73, Opp. Domino's Pizza, Savedi,, Ahmadnagar, Maharashtra 414003, India",None,0
frame_00062.jpg,19.119758,74.728392,"Ahmadnagar, Maharashtra, India, 4p9h+w73, Opp. Domino's Pizza, Savedi,, Ahmadnagar, Maharashtra 414003, India, ; Lat 19.119758° Long 74.728392°",None,0
frame_00063.jpg,19.103254,74.735468,"Ahmadnagar, Maharashtra, India, 6, Police Quarters, Sarjepura City, Anmadnagar,, Maharashtra 414001, India",cracks: 1,1
frame_00064.jpg,19.103231,74.735529,"= Ahmadnagar, Maharashtra, India, = 56, Police Quarters, Sarjepura City, Anmadnagar,, Se omy",pothole: 3,3
frame_00065.jpg,19.103231,74.735529,"Ahmadnagar, Maharashtra, India, 6, Police Quarters, Sarjepura City, Anmadnagar,, Maharashtra 414001, India",pothole: 2,2
frame_00066.jpg,19.103212,74.735577,"Ahmadnagar, Maharashtra, India Se, 6, Police Quarters, Sarjepura City, Anmadnagar, ss, Maharashtra 414001, India",cracks: 1,1
frame_00067.jpg,19.103198,74.73561,"Ahmadnagar, Maharashtra, India |, 6, Police Quarters, Sarjepura City, Anhmadnagar, i, Maharashtra 414001, India",None,0
frame_00068.jpg,19.103198,74.73561,"Ahmadnagar, Maharashtra, India, 6, Police Quarters, Sarjepura City, Anmadnagar,, Maharashtra 414001, India","manhole: 1, pothole: 1",2
frame_00069.jpg,19.103198,74.73561,"oe apa «GG, Police Quarters, Sarjepura City, Anmadnagar,, Maharashtra 414001, India, Fy) Lat 19.103198° Long 74.73561°, a ee »","pothole: 1, manhole: 1",2
frame_00070.jpg,19.103181,74.735644,"Sia Ae, Loi a Oh, * Re ZE,, eae, » Ahmadnagar, Maharashtra, India, 6, Police Quarters, Sarjepura City, Anhmadnagar,, Maharashtra 414001, India","manhole: 1, pothole: 1",2
frame_00071.jpg,19.103154,74.735693,"Ahmadnagar, Maharashtra, India, 6, Police Quarters, Sarjepura City, Anmadnagar,, wise Maharashtra 414001, India",None,0
frame_00072.jpg,19.103154,74.735693,"Ahmadnagar, Maharashtra, India, 6, Police Quarters, Sarjepura City, Anmadnagar,, Maharashtra 414001, India",cracks: 1,1
frame_00073.jpg,19.10313,74.735763,"Ahmadnagar, Maharashtra, India, 6, Police Quarters, Sarjepura City, Anmadnagar,, Maharashtra 414001, India",None,0
frame_00074.jpg,19.10313,74.735763,"Gr? Re ye, Pay ERO, = | Ahmadnagar, Maharashtra, India, Shaq if , 6, Police Quarters, Sarjepura City, Anmadnagar,, a “Maharashtra 414001, India","cracks: 1, manhole: 1",2
frame_00075.jpg,19.10313,74.735763,"Ahmadnagar, Maharashtra, India, 6, Police Quarters, Sarjepura City, Anmadnagar,, Maharashtra 414001, India",None,0
frame_00076.jpg,19.103103,74.735846,"Ahmadnagar, Maharashtra, India, 6, Police Quarters, Sarjepura City, Ahmadnagar,, Maharashtra 414001, India, — Lat 19.103103° Long 74.735846°",None,0
frame_00077.jpg,19.102998,74.736421,"EERE 2, Ahmadnagar, Maharashtra, India, Laltaki Road, 4p3p+6hp, Tarakpur, Ahmadnagar,, Maharashtra 414001, India",pothole: 2,2
frame_00078.jpg,19.102998,74.736421,"oo ! ‘ 4 ¥, 3 n, mY _"", a J, A Y), “aa, — Wiis, — y 44) ‘, Aes ff, a rans «ez, Ahmadnagar, Maharashtra, India a=, Pe Sy Laltaki Road, 4p3p+6hp, Tarakpur, Ahmadnagar, =, Maharashtra 414001, India",None,0
frame_00079.jpg,19.102992,74.736483,"ae fat Se, ——— eel, Ahmadnagar, Maharashtra, India, c- Laltaki Road, 4p3p+6hp, Tarakpur, Ahmadnagar,, st “SA Maharashtra 414001, India, = 7a Lat 19.102992° Long 74.736483°",None,0
frame_00080.jpg,19.102992,74.736483,"ES LN ea |, | Ahmadnagar, Maharashtra, India, Laltaki Road, 4p3p+6hp, Tarakpur, Ahmadnagar,, Maharashtra 414001, India",None,0
frame_00081.jpg,19.102987,74.736557,"Ahmadnagar, Maharashtra, India, Tis se g, 4p3p+6hx, Tarakpur, Ahmadnagar, Maharashtra, 414001, India",cracks: 1,1
frame_00082.jpg,19.102974,74.73664,"Ahmadnagar, Maharashtra, India, 4p3p+6hx, Tarakpur, Ahmadnagar, Maharashtra, 414001, India",None,0
frame_00083.jpg,19.102974,74.73664,"Ahmadnagar, MaharasnNtra, India, 4p3p+6hx, Tarakpur, Ahmadnagar, Maharashtra, 414001, India",None,0
frame_00084.jpg,19.102974,74.73664,"Ahmadnagar, Maharashtra, India, 4p3p+6hx, Tarakpur, Ahmadnagar, Maharashtra, 414001, India","cracks: 1, pothole: 1",2
frame_00085.jpg,19.102959,74.736716,"sx, Ahmadnagar, Maharashtra, India =, 4p3p+6hx, Tarakpur, Ahmadnagar, Maharashtra, 414001, India, ie Pee O",None,0
frame_00086.jpg,19.102995,74.737069,"Ahmadnagar, MaharasnNtra, India, 1st, Sarjepura Rd, Near P N G Jwellers, Sarjepura, City, Anhmadnagar, Maharashtra 414001, India",cracks: 1,1
frame_00087.jpg,19.103017,74.737122,"Ass, Ahmadnagar, Maharashtra, India, 302,white House, Sarjepura Rd, Near Gogadev Temple,, Tarakpur, Anmadnagar, Maharashtra 414001, India","pothole: 2, cracks: 1",3
frame_00088.jpg,19103017,74.737122,"Ahmadnagar, Maharashtra, India, 302,white House, Sarjepura Rd, Near Gogadev Temple,, Tarakpur, Anmadnagar, Maharashtra 414001, India",pothole: 1,1
frame_00089.jpg,19.103053,74.737184,"° MIH.IG a, ¥S69 jaa, Ahmadnagar, Maharashtra, India, 302,white House, Sarjepura Rd, Near Gogadev Temple,, Tarakpur, Anmadnagar, Maharashtra 414001, India",None,0
frame_00090.jpg,19103053,74.737184,"Th | dre L, «= “tj. Ahmadnagar, Maharashtra, India, ed § 302,white House, Sarjepura Rd, Near Gogadev Temple,, Tarakpur, Anmadnagar, Maharashtra 414001, India",pothole: 1,1
frame_00091.jpg,19.103085,74.737237,"“Hy. 4g, "" ceeee i ANMadnagar, Maharashtra, India Mite, 3,"" Be 104 White House, 1st Floor, Sarjepura Rd, Tarakpur,, e)2 , Ahmadnagar, Maharashtra 414001, India, “es 4S"" Lat 19.103085° Long 74.737237°, wes Ma",pothole: 2,2
frame_00092.jpg,19.103085,74.737237,"eo was), Ahmadnagar, Maharashtra, India, 104 White House, 1st Floor, Sarjepura Rd, Tarakpur,, Ahmadnagar, Maharashtra 414001, India",None,0
frame_00093.jpg,19.103098,74.737288,"Ahmadnagar, Maharashtra, India, 104 White House, 1st Floor, Sarjepura Rd, Tarakpur,, Ahmadnagar, Maharashtra 414001, India",pothole: 1,1
frame_00094.jpg,19.103098,74.737288,">=. Ahmadnagar, Maharashtra, India, ss"", i * 104 White House, 1st Floor, Sarjepura Rd, Tarakpur,, eet | Ahmadnagar, Maharashtra 414001, India, ay me ) Lat 19.103098° Long 74.737288°, eas",None,0
frame_00095.jpg,19.103109,74.737363,"Ale!, Ap = ip es, Ahmadnagar, Maharashtra, India @-, 104 White House, 1st Floor, Sarjepura Rd, Tarakpur, am, Ahmadnagar, Maharashtra 414001, India",None,0
frame_00096.jpg,19.103116,74.737434,"_ India, 104 White House, 1st Floor, Sarjepura Rd, Tarakpur,, wseqeae, Maharashtra 414001, India",None,0
frame_00097.jpg,19.103116,74.737434,"tra, India, 104 White House, 1st Floor, Sarjepura Rd, Tarakpur,, sedate, Maharashtra 414001, India",None,0
frame_00098.jpg,19.102594,74.737832,"Ahmadnagar, Maharashtra, India, 4p3q+453, Sarjepura Rd, Tarakpur, Ahmadnagar,, Maharashtra 414001, India",cracks: 2,2
frame_00099.jpg,19.102516,74.737872,"Ahmadnagar, Maharashtra, India, Sarjepura Rd, Tarakpur, Ahmadnagar, Maharashtra, 414001, India",None,0
frame_00100.jpg,19.102451,74.73791,"Sarjepura Rd, Tarakpur, Ahmadnagar, Maharashtra, “ 414001, India, “eq Lat 19.102451° Long 74.73791°",cracks: 4,4
frame_00101.jpg,19.102451,74.73791,"Ahmadnagar, Maharashtra, India, Sarjepura Rd, Tarakpur, Anmadnagar, Maharashtra, 414001, India",None,0
frame_00102.jpg,19.102393,74.737951,"2 ene ene, ar, ai, a SS —, a 8 te, “se an, = “ 3S, rr eee <i, iS oat y at, <> Per, “ale “45, 7 x, RP or! —, , wae f 4 Loe et, mothe, 7 ee 7, & Ae Me, - eee aa, 7 aarent i= - * They > cal, a » Fa a x iy AS 2 ia ES LSS, Ahmadnagar, Maharashtra, India fe, Police Headquarters Church, Sarjepura Rd, ., Tarakpur, Anhmadnagar, Maharashtra 414001, India",manhole: 1,1
frame_00103.jpg,19.102393,74.737951,"Ahmadnagar, Maharashtra, India ===, Police Headquarters Church, Sarjepura Rd,, Tarakpur, Ahmadnagar, Maharashtra 414001, India",None,0
frame_00104.jpg,19.102326,74.737984,"Ahmadnagar, MaharasnNtra, India, Police Headquarters Church, Sarjepura Rd,, Tarakpur, Ahmadnagar, Maharashtra 414001, India",cracks: 1,1
frame_00105.jpg,19.102326,74.737984,"Police Headquarters Church, Sarjepura Rd,, Tarakpur, Ahmadnagar, Maharashtra 414001, India","pothole: 1, cracks: 1",2
frame_00106.jpg,19.102264,74.738019,"Ahmadnagar, Maharashtra, India, Sarjepura Road Tarakpur Sarjepura, Next To Sablok Petrol, Pump, Tarakpur, Anhmadnagar, Maharashtra 414001, India",manhole: 1,1
frame_00107.jpg,19.102264,74.738019,"Ahmadnagar, Maharashtra, India, Sarjepura Road Tarakpur Sarjepura, Next To Sablok Petrol, Pump, Tarakpur, Anhmadnagar, Maharashtra 414001, India","manhole: 1, cracks: 1",2
frame_00108.jpg,19.102124,74.7381,"Ahmadnagar, Maharashtra, India, Sarjepura Road Tarakpur Sarjepura, Next To Sablok Petrol, Pump, Tarakpur, Ahmadnagar, Maharashtra 414001, India",None,0
frame_00109.jpg,19.102124,74.7381,"Ahmadnagar, Maharashtra, India, Sarjepura Road Tarakpur Sarjepura, Next To Sablok Petrol, Pump, Tarakpur, Anhmadnagar, Maharashtra 414001, India, ae "" ; hehe a Lat 19.102124° Long 74.7381°",None,0
frame_00110.jpg,19.102124,74.7381,"Ahmadnagar, Maharashtra, India, Sarjepura Road Tarakpur Sarjepura, Next To Sablok Petrol B, Pump, Tarakpur, Anhmadnagar, Maharashtra 414001, India §","manhole: 1, cracks: 1",2
frame_00111.jpg,19.102052,74.738154,"Ahmadnagar, Maharashtra, India, 4p2q+v88, Sarjepura Rd, Sarjepura City,, Ahmadnagar, Maharashtra 414001, India",manhole: 1,1
frame_00112.jpg,19.101972,74.738203,"p p, __ oi) Bees, Fp wai Transport C nro), re part Om no OO, Ahmadnagar, Maharashtra, India, 4p2q+v88, Sarjepura Rd, Sarjepura City,, | Ahmadnagar, Maharashtra 414001, India",None,0
frame_00113.jpg,19.101972,74.738203,"Ahmadnagar, MaharasnNtra, India, 4p2q+v88, Sarjepura Rd, Sarjepura City,, Ahmadnagar, Maharashtra 414001, India, mg ir! |",None,0
frame_00114.jpg,19.101821,74.738294,"; ea Ahmadnagar, Maharashtra, India Eee, Jl OE 3, Tarakpur, Anmadnagar, Maharashtra 414001, ice, India",None,0
frame_00115.jpg,19.101821,74.738294,"Rs 5 ee Bags s——— n, Ahmadnagar, Maharashtra, India, 3, Tarakpur, Ahmadnagar, Maharashtra 414001,, India, = Lat 19.101821° Long 74.738294°",pothole: 1,1
frame_00116.jpg,19.101821,74.738294,"Ahmadnagar, Maharashtra, India, 3, Tarakpur, Ahmadnagar, Maharashtra 414001,, India",cracks: 1,1
frame_00117.jpg,19.101751,74.738344,"Ahmadnagar, Maharashtra, India, 4p2q+v88, Sarjepura Rd, Sarjepura City,, Ahmadnagar, Maharashtra 414001, India",cracks: 2,2
frame_00118.jpg,19.101751,74.738344,"aud fare ATselt =, AY ureatet “, aatd Raed Ged |, gayedt qerea HATA, gH. US,, frei. 41. 86699 87699., Ae - 3 , Pe, e }' i, er ee AHmadnagar, Maharashtra, India, Spiess 4 4p2q+v88, Sarjepura Rd, Sarjepura City,, Ahmadnagar, Maharashtra 414001, India, —@ Lat 19.101751° Long 74.738344°",None,0
frame_00119.jpg,19.100793,74.738803,"Ahmadnagar, MaharasnNtra, India, 11, Sarjepura Rd, Chowk, Ahmadnagar, Maharashtra, 414001, India","manhole: 1, cracks: 1",2
frame_00120.jpg,19.100714,74.738845,"Qala Griz Wt ara ay, Ahmadnagar, Maharashtra, India, 829 Sarjepura Road, Mg Road, Opposite Shamsher Bazar :, Masjid, Sarjpura, Tarakpur, Anmadnagar, Maharashtra 414001, @, India",None,0
frame_00121.jpg,19.100714,74.738845,"fe epee, \ we, Ahmadnagar, Maharashtra, India, 829 Sarjepura Road, Mg Road, Opposite Shamsher Bazar =, Masjid, Sarjpura, Tarakpur, Anhmadnagar, Maharashtra 414001, i, India","pothole: 1, manhole: 2",3
frame_00122.jpg,19.100714,74.738845,"Mi qe| B yuittt lo, ¥ ane ad, sll |, Ahmadnagar, Maharashtra, India, 829 Sarjepura Road, Mg Road, Opposite Shamsher Bazar we, Masjid, Sarjpura, Tarakpur, Anmadnagar, Maharashtra 414001, Bees, India",pothole: 2,2
frame_00123.jpg,19.100627,74.738877,"Gokulwadi, Sarjepura Rd, Tarakpur, Ahmadnagar,, *- Maharashtra 414001, India, ‘Sy eh Lat 19.100627° Long 74.738877°",pothole: 3,3
frame_00124.jpg,19.100627,74.738877,"Ahmadnagar, MaharasnNtra, India, Gokulwadi, Sarjepura Rd, Tarakpur, Ahmadnagar,, Maharashtra 414001, India",None,0
frame_00125.jpg,19.100541,74.7389,"Ahmadnagar, Maharashtra, India = “ages, Police Headquarter, 1391, Sarjepura Rd, Area, <a ae, Tarakpur, Anmadnagar, Maharashtra 414001, India, _ = r a TES F SENECA She 5>°",pothole: 1,1
frame_00126.jpg,19.100204,74.738945,"4 Anhmadnagar, MaharasnNtra, India, 5/6 Rangbhavan, Sarjepura Rd, Tarakpur,, Ahmadnagar, Maharashtra 414001, India",None,0
frame_00127.jpg,19.100131,74.738952,"WWhitne,, Ahmadnagar, Maharashtra, India, ; 5981, Sarjepura Rd, Bagadpatti, Tarakpur,, Ahmadnagar, Maharashtra 414001, India, ® Lat 19.100131° Long 74.738952°",manhole: 1,1
frame_00128.jpg,19.100131,74.738952,"«<@ Ahmadnagar, MaharasnNtra, India &, we =5981, Sarjepura Rd, Bagadpatti, Tarakpur, :, 8 Ahmadnagar, Maharashtra 414001, India, Me Lat 19.100131° Long 74.738952°, i as “AA N",None,0
frame_00129.jpg,19.099836,74.738988,"te we, Ahmadnagar, Maharashtra, India, 6041, Sarjepura Rd, Bagadpatti, Tarakpur,, Ahmadnagar, Maharashtra 414001, India",pothole: 2,2
frame_00130.jpg,19.09976,74,"ete, Vesecond Monite, Available, , wee, oe | SIgHEATR, Maharashtra, India, ‘e 6091, Sarjepura Rd, Bagadpatti, Tarakpur, Hee,, tee Maharashtra 414001, India, Ft er 4 = Lat 19.09976° Long 74. 738994°, ole ahs",pothole: 1,1
frame_00131.jpg,19.09976,74.738994,"Sk 6091, Sarjepura Rd, Bagadpatti, Tarakpur, AeA,, Maharashtra 414001, India",pothole: 2,2
frame_00132.jpg,19.099694,74.738999,"bo SUCUTIT Mobile, Available, rs Ahmadnagar, MaharasnNtra, India, OSes. alt ie 5964, Sarjepura Rd, Sarjepura City, Anmadnagar,, fe, pert bE Mg = Maharashtra 414001, India, oa! BE tapes mu ~©Lat 19.099694° Long 74.738999°",None,0
frame_00133.jpg,19.099614,74.739004,"2 eg “Pe Ahmadnagar, Maharashtra, India, Be ye 8 ft S area 6112, Sarjepura Rd, Bagadpatti, Tarakpur,, ie Ahmadnagar, Maharashtra 414001, India, a aes 4a Lat 19.099614° Long 74.739004°",pothole: 1,1
frame_00134.jpg,19.099614,74.739004,"iif, Ef om, Ahmadnagar, Maharashtra, India |, 6112, Sarjepura Rd, Bagadpatti, Tarakpur,, Ahmadnagar, Maharashtra 414001, India",None,0
frame_00135.jpg,19.099524,74.739003,"Seeks, 7 rq, Ahmadnagar, Maharashtra, India, 6107, Sarjepura Rd, Bagadpatti, Tarakpur,, Ahmadnagar, Maharashtra 414001, India",None,0
frame_00136.jpg,19.099524,74.739003,"aie 6107, Sarjepura Rd, Bagadpatti, Tarakpur,, mem ~Ahmadnagar, Maharashtra 414001, India, ¢~ Lat 19.099524° Long 74.739003°",pothole: 1,1
frame_00137.jpg,19.099524,74.739003,"ee rs, Ahmadnagar, Maharashtra, India, 6107, Sarjepura Rd, Bagadpatti, Tarakpur, ok, Ahmadnagar, Maharashtra 414001, India",cracks: 1,1
frame_00138.jpg,19.099421,74.738984,"Heder, Maharashtra, India, 6131, Sarjepura Rd, Opposite Of Shivam Wines, Bagadpatti,, Sarjepura City, WeaqamX, Maharashtra 414003, India",None,0
frame_00139.jpg,19.099328,74.738971,"iy,, - Ahmadnagar, Maharashtra, India, aye 6086, Sarjepura Rd, Sarjepura City, Ahmadnagar,, a Maharashtra 414001, India, 1 Lat 19.099328° Long 74.738971°",pothole: 1,1
frame_00140.jpg,19.099328,74.738971,"RA Ahmadnagar, Maharashtra, India =, 5 Maharashtra 414001, India, - Lat 19.099328° Long 74.738971°, ie x oe",pothole: 2,2
frame_00141.jpg,19.099249,74.738967,"Hedqeag, Maharashtra, India, 6122, Sarjepura Rd, Sarjepura City, Hea,, Maharashtra 414001, India",pothole: 2,2
frame_00142.jpg,19.099249,74.738967,"ede, Maharashtra, India, 6122, Sarjepura Rd, Sarjepura City, Hecate,, Maharashtra 414001, India",None,0
frame_00143.jpg,19.09919,74.738959,"Ahmadnagar, Maharashtra, India, No.6150, Sarjepura Rd, Bagadpatti, Sarjepura City,, Ahmadnagar, Maharashtra 414001, India",None,0
frame_00144.jpg,19.09919,74.738959,"Ahmadnagar, Maharashtra, India &, No.6150, Sarjepura Rd, Bagadpatti, Sarjepura City,, Ahmadnagar, Maharashtra 414001, India, Nc a, oe .",pothole: 1,1
frame_00145.jpg,19.099147,74.738949,"Ahmadnagar, Maharashtra, India, 3pxq+jgq, Bagadpatti, Tarakpur, Ahmadnagar,, Maharashtra 414001, India",pothole: 1,1
frame_00146.jpg,19.099147,74.738949,"Ahmadnagar, MaharasnNtra, India ,, 3pxq+jgq, Bagadpatti, Tarakpur, Ahmadnagar, ‘, Maharashtra 414001, India",pothole: 1,1
frame_00147.jpg,19.099099,74.738939,"Heder, Maharashtra, India, Shop No 3 Priyadarshini Complex, Sarjepura Rd, Opp. Saideep :, Bakery, Tarakpur, HeaqaR, Maharashtra 414001, India",pothole: 3,3
frame_00148.jpg,19.09905,74.738938,"Ahmadnagar, Maharashtra, India, Shop No, 6460, Sarjepura Rd, Beside Karachiwala Bakers,, Sarjepura City, Anmadnagar, Maharashtra 414001, India",pothole: 4,4
frame_00149.jpg,19.09905,74.738938,"Ahmadnagar, Maharashtra, India, Shop No, 6460, Sarjepura Rd, Beside Karachiwala Bakers,, Sarjepura City, Anmadnagar, Maharashtra 414001, India 7",pothole: 2,2
frame_00150.jpg,19.09905,74.738938,"Ahmadnagar, Maharashtra, India, Shop No, 6460, Sarjepura Rd, Beside Karachiwala Bakers, &, Sarjepura City, Anmadnagar, Maharashtra 414001, India",None,0
frame_00151.jpg,19.099012,74.738944,"Ahmadnagar, Maharashtra, India, Shop No, 6460, Sarjepura Rd, Beside Karachiwala Bakers, I, Sarjepura City, Anmadnagar, Maharashtra 414001, India, Ambuja, Cement",pothole: 1,1
frame_00152.jpg,19.098972,74.738942,"NSIC ABT, TSH etdra au wO, ys » Anmadnagar, Maharashtra, India ,, | Shop No, 6460, Sarjepura Rd, Beside Karachiwala Bakers, ff, * Sarjepura City, Anmadnagar, Maharashtra 414001, India",None,0
frame_00153.jpg,19.098972,74.738942,"' Wd He, | Ahmadnagar, Maharashtra, India, le ze Shop No, 6460, Sarjepura Rd, Beside Karachiwala Bakers,, aba “= Sarjepura City, Anmadnagar, Maharashtra 414001, India, @ Lat 19.098972° Long 74.738942°",None,0
frame_00154.jpg,19.098938,74.738941,"Ss -=2), Ahmadnagar, Maharashtra, India, Shop No, 6460, Sarjepura Rd, Beside Karachiwala Bakers,, Sarjepura City, Anmadnagar, Maharashtra 414001, India",pothole: 3,3
frame_00155.jpg,19.098938,74.738941,"Ahmadnagar, Maharashtra, India SS, Shop No, 6460, Sarjepura Rd, Beside Karachiwala Bakers, }, Sarjepura City, Anmadnagar, Maharashtra 414001, India, | Lat 19.098938° Long 74.738941°",None,0
frame_00156.jpg,19.098938,74.738941,"a Ao Cth yf, ipo \""f, art tte \, Ahmadnagar, Maharashtra, India Sa, Shop No, 6460, Sarjepura Rd, Beside Karachiwala Bakers, [ess, Sarjepura City, Anmadnagar, Maharashtra 414001, India_",pothole: 1,1
frame_00157.jpg,Not found,Not found,"Ahmadnagar, Maharashtra, India, 1259,juna Dane Dabara, Sarjepura City,, Ahmadnagar, Maharashtra 414001, India",manhole: 1,1
frame_00158.jpg,19.098856,74.738925,"er), a ay SES, POTENT NACHT a, Ahmadnagar, Maharashtra, India, 1259,juna Dane Dabara, Sarjepura City,, Ahmadnagar, Maharashtra 414001, India",pothole: 2,2
frame_00159.jpg,19.098856,74.738925,"PROATENTNONAT ATE, 3. go |, mnow |, wm |, Ahmadnagar, MaharasnNtra, India, 1259,juna Dane Dabara, Sarjepura City,, Ahmadnagar, Maharashtra 414001, India",pothole: 7,7
frame_00160.jpg,19.098808,74.738918,"1259,juna Dane Dabara, Sarjepura City,, Ahmadnagar, Maharashtra 414001, India",pothole: 6,6
frame_00161.jpg,19.098808,74.738918,"_— CN, Xf ‘, Ahmadnagar, Maharashtra, India |, 1259,juna Dane Dabara, Sarjepura City,, Ahmadnagar, Maharashtra 414001, India",pothole: 7,7
frame_00162.jpg,19.098754,74.738922,"Ahmadnagar, Maharashtra, India =~, 3pxq+fhg, Sarjepura Rd, Sarjepura City, SS, Ahmadnagar, Maharashtra 414001, India",pothole: 4,4
frame_00163.jpg,19.098754,74.738922,"Ahmadnagar, Maharashtra, India, 3pxq+fhg, Sarjepura Rd, Sarjepura City,, Ahmadnagar, Maharashtra 414001, India",pothole: 2,2
frame_00164.jpg,19.098704,74.738933,"Ahmadnagar, Maharashtra, India, 3pxq+fhg, Sarjepura Rd, Sarjepura City,, Ahmadnagar, Maharashtra 414001, India",pothole: 2,2
frame_00165.jpg,19.098704,74.738933,"> ee a, Ahmadnagar, Maharashtra, India, 3pxq+fhg, Sarjepura Rd, Sarjepura City,, Ahmadnagar, Maharashtra 414001, India",pothole: 1,1
frame_00166.jpg,19.09847,74.738904,"Peet itp des,, Ahmadnagar, Maharashtra, India 2, 3pxq+9h8, Sarjepura Rd, Sarjepura City,, Ahmadnagar, Maharashtra 414001, India",cracks: 1,1
frame_00167.jpg,19.09847,74.738904,"“a Ahmadnagar, Maharashtra, India, 3pxq+Q9h8, Sarjepura Rd, Sarjepura City, oe ee, & Ahmadnagar, Maharashtra 414001, India >, ~ Lat 19.09847° Long 74.738904°",None,0
frame_00168.jpg,19.098425,74.738906,"Shantadurga Apartment Shop No 10, Area, ‘Cts No 912,, Sarjepura Rd, Sarjepura City, Ahmadnagar, Maharashtra, 414001, India",None,0
frame_00169.jpg,Not found,Not found,"Ahmadnagar, Maharashtra, India, Shantadurga Apartment Shop No 10, Area, Cts No 912,, Sarjepura Rd, Sarjepura City, Anmadnagar, Maharashtra, 414001, India, Lat 19. 0984209 axe 74. pada",None,0
frame_00170.jpg,19.098376,74.738907,"Ahmadnagar, Maharashtra, India, Shantadurga Apartment Shop No 10, Area, Cts No 912,, Sarjepura Rd, Sarjepura City, Anmadnagar, Maharashtra, 414001, India",cracks: 1,1
frame_00171.jpg,19.098376,74.738907,"Ahmadnagar, Maharashtra, India, Shantadurga Apartment Shop No 10, Area, Cts No 912,, Sarjepura Rd, Sarjepura City, Anmadnagar, Maharashtra, 414001, India",None,0
frame_00172.jpg,19.09831,74.738911,"Ahmadnagar, Maharashtra, India, *— Shop No 01, Parnayaik Galli, Teli Knhunt Rd, Opp. Latur Bank,, - Sarjepura City, Ahmadnagar, Maharashtra 414001, India","manhole: 2, pothole: 1",3
frame_00173.jpg,19.09831,74.738911,"Ahmadnagar, Maharashtra, India, Shop No 01, Parnayaik Galli, Teli Knunt Rd, Opp. Latur Bank,, Sarjepura City, Anmadnagar, Maharashtra 414001, India",None,0
frame_00174.jpg,19.098232,74.738927,"ate, sHedqeate, Maharashtra, India, 3pxq+7hf, Dal Mandai Rd, Sarjepura City, Heaaate,, Maharashtra 414001, India, we a. a",None,0
frame_00175.jpg,19.098162,74.738937,"i / 4 . 4, ye,, Ahmadnagar, Maharashtra, Tatelr:', 3pxq+7hf, Dal Mandai Rd, Sarjepura City,, Ahmadnagar, Maharashtra 414001, India",None,0
frame_00176.jpg,19.098162,74.738937,"aay, vera, Ahmadnagar, Maharashtra, India ms, 3pxq+7hf, Dal Mandai Rd, Sarjepura City, *, Ahmadnagar, Maharashtra 414001, India, “= = Se ert",None,0
frame_00177.jpg,19.098162,74.738937,"Ahmadnagar, Maharashtra,, 3pxq+7hf, Dal Mandai Rd, Sarjepura City,, Ahmadnagar, Maharashtra 414001, India",None,0
frame_00178.jpg,19.098115,74.738942,"s~ ANmadnagar, Maharashtra, India, Wahi Height (i Floor), Lal Taki, Next To Hdfc Bank Near Amar, Hotel, 3pxq+7h8, Sarjepura Rd, Sarjepura City, Ahmadnagar,, Maharashtra 414001, India, ryt 4",None,0
frame_00179.jpg,19.098115,74.738942,"Ahmadnagar, Maharashtra, India, Wahi Height (i Floor), Lal Taki, Next To Hdfc Bank Near Amar, Hotel, 3pxq+7h8, Sarjepura Rd, Sarjepura City, Anmadnagar,, Maharashtra 414001, India, mae one nt ne LOE!","cracks: 2, pothole: 1",3
frame_00180.jpg,19.098063,74.738948,"Ahmadnagar, Maharashtra, India, 996, Sarjepura City, Anmadnagar, Maharashtra, 414001, India",None,0
frame_00181.jpg,19.098015,74.73895,"ti = {, \lsaranie =< pat, 1 Vy vi ty | H —, 13 pad CRAFT t 4 oa, rane 3 fy <, Ahmadnagar, Maharashtra, India f=, 996, Sarjepura City, Anmadnagar, Maharashtra +, 414001, India",cracks: 4,4
frame_00182.jpg,19.098015,74.73895,"996, Sarjepura City, Anmadnagar, Maharashtra, 414001, India, are",cracks: 1,1
frame_00183.jpg,19.097968,74.738953,"“| Ahmadnagar, Maharashtra, India fie =, 996, Sarjepura City, Anmadnagar, Maharashtra, 414001, India, $45 si Lat 19.097968° Long 74.738953°, see, nocd a To, A EPS, SA0Rs",cracks: 1,1
frame_00184.jpg,19.097968,74.738953,"7S ob, aie 996, Sarjepura City, Anmadnagar, Maharashtra, 414001, India, 2 s, iy iw - } Y 2",None,0
frame_00185.jpg,19.097924,74.738958,"Ahmadnagar, MaharasnNtra, India, Shop No 01 Mg Road, Teli Khunt Rd, Sarjepura City,, Ahmadnagar, Maharashtra 414001, India",pothole: 1,1
frame_00186.jpg,19.097924,74.738958,"Ahmadnagar, Maharashtra, India =~, Shop No 01 Mg Road, Teli Khunt Rd, Sarjepura City, ES, Ahmadnagar, Maharashtra 414001, India, eS nD 8 5 RS",None,0
frame_00187.jpg,19.097874,74.73896,"Ahmadnagar, Maharashtra, India ==, Shop No 01 Mg Road, Teli Khunt Rd, Sarjepura City,, Ahmadnagar, Maharashtra 414001, India, . FF x a “78 on Mee yy Ap, ‘ . ha > 3 es .4 . a EO, oe Soe 4 » . . ?",pothole: 3,3
frame_00188.jpg,19.097874,74.73896,"PrePep erst, qagvesa92230, wy Ad, 4 e, WS>=.27 Ahmadnagar, Maharashtra, India fe, . Abas. i Shop No 01 Mg Road, Teli Khunt Rd, Sarjepura City, #eetae, & tz, Ahmadnagar, Maharashtra 414001, India",pothole: 1,1
frame_00189.jpg,19.097807,74.738961,"SKN, , ie 74 ., Ahmadnagar, Maharashtra, India #, — Shop No 01 Mg Road, Teli Khunt Rd, Sarjepura City, ., viv | Ahmadnagar, Maharashtra 414001, India, Brae.",None,0
frame_00190.jpg,19.097807,74.738961,"mara, ee » f, feamien (a DOr, Sh oe, Dasbearare [*, La ., = ews, Ahmadnagar, Maharashtra, India, Shop No 01 Mg Road, Teli Khunt Rd, Sarjepura City,, Ly Ahmadnagar, Maharashtra 414001, India",pothole: 1,1
frame_00191.jpg,19.09774,74.738967,"onfe aitargea, fedoifen, Ahmadnagar, MaharasnNtra, India, Shop No 1047 Mg Road, Teli Khunt Rd, Sarjepura, City, Anhmadnagar, Maharashtra 414001, India, praies «5s a re “APES eet oh “ a Sch : he, a Day ofav at oY am s¥",pothole: 1,1
frame_00192.jpg,19.09774,74.738967,"ool, gaee Ahmadnagar, Maharashtra, India, ‘ i Shop No 1047 Mg Road, Teli Khunt Rd, Sarjepura, City, Anmadnagar, Maharashtra 414001, India, h Lat 19.09774° Long 74.738967°, eta 3",pothole: 1,1
frame_00193.jpg,19.097672,74.73896,"(ay OTS, = f tsar. - oe 4 ar dy ae Sia, = Ahmadnagar, Maharashtra, India, Shop No 1047 Mg Road, Teli Khunt Rd, Sarjepura, img City, Ahmadnagar, Maharashtra 414001, India, umm Lat 19.097672° Long 74.73896°",None,0
frame_00194.jpg,19.097672,74.73896,"Ahmadnagar, Maharashtra, India gs, Shop No 1047 Mg Road, Teli Khunt Rd, Sarjepura r, City, Ahmadnagar, Maharashtra 414001, India",None,0
frame_00195.jpg,19.097598,74.738955,"bal\\, BURS & TRAVE|, ae Ieee, sede, Maharashtra, India, 2046, Beside Shree Ram Mandir, Teli Kunth,, Sarjepura City, Heq#e-7R, Maharashtra 414001, India",None,0
frame_00196.jpg,19.097523,74.738949,"Mi A ‘, teeny, Ahmadnagar, Maharashtra, India, 2046, Beside Shree Ram Mandir, Teli Kunth, Sarjepura, City, Anmadnagar, Maharashtra 414001, India",pothole: 2,2
frame_00197.jpg,19.097523,74.738949,"Ahmadnagar, Maharashtra, India, 2046, Beside Shree Ram Mandir, Teli Kunth, Sarjepura, City, Anmadnagar, Maharashtra 414001, India",None,0
frame_00198.jpg,19.097456,74.738948,"Ahmadnagar, Maharashtra, India See, Telikhunt, Mg Road, Opp. Mandhan Building, Opposite ee, Bombay Bakers, Sarjepura City, Anmadnagar, Maharashtra =, 414001, India Sea, Li pe + — - > a © a, + VAR eTE® 12 7 . im WANT ORAS -— © . a ee SSS)",None,0
frame_00199.jpg,19.097456,74.738948,"Ahmadnagar, Maharashtra, India, Telikhunt, Mg Road, Opp. Mandhan Building, Opposite, Bombay Bakers, Sarjepura City, Anmadnagar, Maharashtra, 414001, India","pothole: 1, cracks: 1",2
frame_00200.jpg,19.097456,74.738948,"Ahmadnagar, Maharashtra, India, Telikhunt, Mg Road, Opp. Mandhan Building, Opposite, rm. Bombay Bakers, Sarjepura City, Anhmadnagar, Maharashtra, ie Ae Ape 414001, India, be Riers ae Lat 19.097456° Long 74.738948°, Rae Gee}",None,0
frame_00201.jpg,19.097403,74.738957,"Ahmadnagar, Maharashtra, India ! a, Telikhunt, Mg Road, Opp. Mandhan Building, Opposite < ~~, Bombay Bakers, Sarjepura City, Anmadnagar, Maharashtra Ses. :, 414001, India WAS, itd ‘at",None,0
frame_00202.jpg,19.097337,74.738955,"He Celeb, OY NIE), Ahmadnagar, Maharashtra, India, Shop No 173/9, A/463, S No 776, Mg Road, Teli Khunt, Rd, Near Bata Showroom, Sarjepura City, Anhmadnagar,, Maharashtra 414001, India",None,0
frame_00203.jpg,19.097337,74.738955,"Ahmadnagar, Maharashtra, India, Shop No 173/9, A/463, S No 776, Mg Road, Teli Khunt, Rd, Near Bata Showroom, Sarjepura City, Anhmadnagar,, Maharashtra 414001, India",None,0
frame_00204.jpg,19.097263,74.738949,"Ahmadnagar, Maharashtra, India, Shop No 173/9, A/463, S No 776, Mg Road, Teli Khunt, Rd, Near Bata Showroom, Sarjepura City, Ahmadnagar,, Maharashtra 414001, India",None,0
frame_00205.jpg,19.096731,74.746985,"is wees Sif bis, ee “4 Ahmadnagar, Maharashtra, India |, re »- £ x» Spww+hmf, Nalegaon, Ahmadnagar, Maharashtra, a we 414001, India, ee ow aR Lat 19.096731° Long 74.746985°",None,0
frame_00206.jpg,19.096484,74.747196,"a s1 |i y, Sw yuy, ies i a 7, — ew) Jy J, Ahmadnagar, Maharashtra, India, 3pww+hp5, Ahmednagar - Aurangabad Rd, Near Sbi Chowk,, Nalegaon, Ahmadnagar, Maharashtra 414001, India",None,0
frame_00207.jpg,19.096307,74.747325,"Ry, “¢¢ Ahmadnagar, MaharasnNtra, India, a 4 ? F. ‘4-7, 1, Mukundnagar, Ahmadnagar, Maharashtra 414001,, “ed wea Titel, a: SS . \aaihr~ Lat 19.096307° Long 74.747325°",None,0
frame_00208.jpg,19.096008,74.747502,"hg , > Ahmadnagar, Maharasntra, India §, : » 1, Mukundnagar, Ahmadnagar, Maharashtra 414001, §, . j India, ae a. \o _ Lat 19.096008° Long 74.747502°",None,0
frame_00209.jpg,19.09578,74.747613,"ye *, “gp, Ahmadnagar, Maharashtra, India, fl Wests ~~ 2nd Floor, Bsnl Office Building, Sbi Chowk,, as ay, i. Vaan, g Nalegaon, Ahmadnagar, Maharashtra 4140071, India, Spree 'e Lat 19.09578° Long 74.747613°",None,0
frame_00210.jpg,19.095408,74.747757,"AN ANS, | fae Ce) Ahmadnagar, Maharashtra, India, A By) ok » 3pwx+52c, Washimbe - Pawar Vasti Rd, M.i.r.c, gg |, XLS re ar, ~ Ahmednagar, Ahmadnagar, Maharashtra 414001, India, tS : - oe Lat 19.095408° Long 74.747757°",None,0
frame_00211.jpg,19.09517,74.747827,"tt _ Ahmadnagar, Maharashtra, India, ; dy. . % a, * 3pwx+24r, Nalegaon, Ahmadnagar, Maharashtra WS, OS we ee 2) Lat 19.09517° Long 74.747827°, me SS “ *, ee ees eee eee SS, / Py f 7 } r =. 5 See",None,0
frame_00212.jpg,19.094767,74.747909,"peer, Ne, Ahmadnagar, Maharashtra, India, Gpo Road Sbi Chowk, College Area, Ahmadnagar,, Maharashtra 414001, India",None,0
frame_00213.jpg,19.094607,74.747946,"- ee, Z Ahmadnagar, Maharashtra, India | ~, _ Gpo Road Sbi Chowk, College Area, Ahmadnagar., Maharashtra 414001, India, *. Lat 19.094607° Long 74.747946°",None,0
frame_00214.jpg,19.094402,74.74799,"ANE iN Ht, "" Ahmadnagar, \ Maharashtra, India |, 2 3pvx+q4p, Jamkhed Rd, College Area, Abiodnagar,} iS, “4 Lat 19.094402° Long 74.74799°",None,0
frame_00215.jpg,19.094252,74.748024,"Sil}, Si A ‘i, J Ahmadnagar, MaharasnNtra, India |, | 1, Narayan Doho, College Area, Ahmadnagar., | Maharashtra 414001, India",None,0
frame_00216.jpg,19.094036,74.748078,"1, Narayan Doho, College Area, Herta,, ee Maharashtra 414001, India, & Lat 19.094036° Long 74.748078°, A M GMT",None,0
frame_00217.jpg,19.093849,74.748123,"is We Ahmadnagar, Maharashtra, India, eet 2B «266, Narayan Doho, M.i.r.c Ahmednagar,, ae at or , a’ Ahmadnagar, Maharashtra 414002, India, ess . = Lat 19.093849° Long 74.748123°",None,0
frame_00218.jpg,19.093499,74.748166,"ae Treva, Ahmadnagar, Maharashtra, India, “—, 266, Narayan Doho, M.i.r.c Ahmednagar,, >, Ahmadnagar, Maharashtra 414002, India",None,0
frame_00219.jpg,19.093239,74.74815,"Ahmadnagar, MaharasnNtra, India |, 266, Narayan Doho, M.i.r.c Ahmednagar,, » Ahmadnagar, Maharashtra 414002, India, ™ Lat 19.093239° Long 74.74815°, ] ie ; “ay | > s - ad . “ > ‘ aN » SL ae te",None,0
frame_00220.jpg,Not found,Not found,"Ahmadnagar, Maharashtra, India | =, 1, Mahavir Chowk, Ahmadnagar, Maharashtra ie es, 423107, India",None,0
frame_00221.jpg,19.092797,74.747719,"Ahmadnagar, Maharashtra, India -, m 1, Mahavir Chowk, Ahmadnagar, Maharashtra, ® 423107, India, \ » J ’ yas . \ . 4, iy \ a PF , ) - .",None,0
frame_00222.jpg,19.092632,74.747309,"Sim 7, Ahmadnagar, Maharashtra, India, oo. ei «6 Chandni Chowk, 3pvw+3v9, M.i.r.c Ahmednagar,, yy ep APS — Ahmadnagar, Maharashtra 414001, India, Fic ae 7 25-89 Lat 19.092632° Long 74.747309°, PRS Ne tN",None,0
frame_00223.jpg,19.092499,74.747019,"(on,, a ae, = lh., mm 2, | ar on, si., be . a , nd os 4. =, 3) < > ee, 1. . Pr., wg?, Ae oogle, Ahmadnagar, Maharashtra, India, Beed - Ahilyanagar - Pune Rd, M.i.r.c Ahmednagar,, Ahmadnagar, Maharashtra 414001, India",None,0
frame_00224.jpg,19.092322,74.74659,"Ahmadnagar, Maharashtra, India | “3%, 48, College Area, Ahmadnagar, Maharashtra, 414110, India, & oe. AT TSE EZR PSE ¥ VOT SS",None,0
frame_00225.jpg,19.092187,74.746265,"Ahmadnagar, MaharasnNtra, India, 47, College Area, Ahmadnagar, Maharashtra 414110,, India Ot, | Lat 19.092187° Long 74.746265° Sei San",None,0
frame_00226.jpg,19.092017,74.74583,"we wy, _ dele 7, & _ye |) eae, Maharashtra, India, im \., i i x, in Oe, . — hen ad, AWA, 47, College Area, Heda, Maharashtra 414110, SS, tome ag ty ~ Lat 19.092017° Long 74.74583° =e, . Sea aon, eet *",None,0
frame_00227.jpg,19.091888,74.745528,"Ahmadnagar, Maharashtra, India, 3prw+r48, College Area, Ahmadnagar, Maharashtra, 414001, India",None,0
frame_00228.jpg,19.091739,74.7452,"a 3 ie tn f a ., * 2 ae) Ahmadnagar, Maharashtra, India, oP BS et) 3prw+r48, College Area, Ahmadnagar, Maharashtra =, ge 7 414001, India os, eee! ji) Lat 19.091739° Long 74.7452°",None,0
frame_00229.jpg,19.091639,74.744967,"ag 2 noe, 27° (> Se-2\| ede, Maharashtra, India, , he eo” > ak Nagar, Ahilyanagar - Solapur Rd, College Area,, eg - ‘6 od ». Hee, Maharashtra 414001, India, 5 SER BE Lat 19.091639° Long 74.744967°",None,0
frame_00230.jpg,19.091482,74.744617,"viVAVAVAVAV, VAVAVAYATA! Wi i ‘ a., nail, are, Lg Poy, Ws 7, by rer Hane | RPE, ris wn} i og iia i, ‘ e's, oN i, Ahmadnagar, Maharashtra, India |~, 3prv+hvq, Ahilya Nagar Flyover, College Area,, Ahmadnagar, Maharashtra 414001, India",None,0
frame_00231.jpg,19.09137,74.744349,"ry , ae, ae F a -, ‘ Ar. wh, Heated, Maharashtra, India, Ahilya Nagar Flyover, Seer, Maharashtra 414001, ee, India SS, WALES Sony ET ED, NER, wees",None,0
frame_00232.jpg,19.091209,74.743953,"yt —— aT * mt, se —S*, a AoE > ’, a ty. . Ne, Ahmadnagar, Maharashtra, India “3., 3prv+9hf, Mh Sh 142, Bhavani Nagar, Ahmadnagar,, Maharashtra 414001, India",None,0
frame_00233.jpg,19.091092,74.743679,". a Om ., “tees SRS Ahmadnagar, Maharashtra, India | =, a 2, ‘ Z oy 6/1, Daund Ahmednagar Rd, Market Yard Area,, : Fs Pot ote } Ahmadnagar, Maharashtra 414001, India, b/s ns Lat 19.091092° Long 74.743679°",None,0
frame_00234.jpg,19.090705,74.742786,"Ahmadnagar, Maharashtra, India, 3prv+644, Ahmadnagar, Maharashtra 414001, India",None,0
frame_00235.jpg,19.090705,74.742786,"Se | Ahmadnagar, Maharashtra, India, oe ee 3prv+644, Ahmadnagar, Maharashtra 414001, India |, ere E , Lat 19.090705° Long 74.742786° 5, WBaiEnd SQeudl™,",None,0
frame_00236.jpg,19.090636,74.74263,"Ahmadnagar, Maharashtra, India, 3prv+644, Ahmadnagar, Maharashtra 414001, India",None,0
frame_00237.jpg,19.090572,74.742484,"a Ley, ic ee, rr F ie > te =, we PJ i, a, {uu (Ue, Ahmadnagar, Maharashtra, India, Jai Anand Travels Bus Stand, Maliwada,, Ahmadnagar, Maharashtra 414001, India",None,0
frame_00238.jpg,19.090508,74.742348,"pat, , — 2 a’ on *, Googles, 2 TE ee ee, Heed, Maharashtra, India, Basement Of Patil Hospital, Kothi, Hea,, Maharashtra 414001, India",None,0
frame_00239.jpg,19.090435,74.742206,"en U7 ee at a, a —— 6 fies =, ' ioe, Aeite ues Glens, PP yo oe tA, aeqeat, Maharashtra, India, Basement Of Patil Hospital, Kothi, Se4¢-7Te,, Maharashtra 414001, India",None,0
frame_00240.jpg,19.090435,74.742206,"ede, Maharashtra, India, Basement Of Patil Hospital, Kothi, He4aaT1,, Maharashtra 414001, India",None,0
frame_00241.jpg,19.090349,74.742064,"SHeACATS, Maharashtra, India, Basement Of Patil Hospital, Kothi, Het,, Maharashtra 414001, India",None,0
frame_00242.jpg,19.090025,74.741576,"a Si ee --*“~ Ahmadnagar, Maharashtra, nda, r™ a Wasant Talkiz Road, Maliwada, Ahmadnagar,, “eh ‘4 Maharashtra 414001, India, dee BEE Lat 19.090025° Long 74.741576° Res, . CN .@ sit mh ety = ; ' : - ; weak : “€",None,0
frame_00243.jpg,19.090025,74.741576,"Ahmadnagar, MaharasnNtra, India, Wasant Talkiz Road, Maliwada, Ahmadnagar,, Maharashtra 414001, India",None,0
frame_00244.jpg,19.08994,74.741444,"are. a pee Ahmadnagar, Maharashtra, India, ""~ 4 se | Wasant Talkiz Road, Maliwada, Ahmadnagar,, = oo 42%0 | Maharashtra 414001, India, 0 ee ree Lat 19.08994° Long 74.741444° ~, oe ti ai* yj fal =p } : , : ts Ne",None,0
frame_00245.jpg,19.089852,74.74132,"6 , bs * -, > Pe ore,, Saw 7, a ®w “Yo ., a i), 1C88 Sy ag eH, SS Tk Pas 39 ax ¥ Brie, et iy, Dy, Ahmadnagar, Maharashtra, India, Wasant Talkiz Road, Maliwada, Ahmadnagar, a, Maharashtra 414001, India .",None,0
frame_00246.jpg,19.089757,74.741196,"ee ay | ie | Ahmadnagar, Maharashtra, India, a - ofa ii - Wasant Talkiz Road, Maliwada, Ahmadnagar,, epee eho"", Lat 19.089757° Long 74.741196°",None,0
frame_00247.jpg,19.089656,74.741065,"Ahmadnagar, Maharashtra, India, ; _ Ahilya Nagar Flyover, Bhavani Nagar, Ahmadnagar,, Maharashtra 414001, India <—",None,0
frame_00248.jpg,19.089656,74.741065,"Aber = Sree Ahmadnagar, Maharashtra, Tate lt, ‘Ts © Ahilya Nagar Flyover, Bhavani Nagar, Ahmadnagar, a + i Maharashtra 414001, India",None,0
frame_00249.jpg,19.089555,74.740934,"PD,, ih i Dp pay 7, : Ste *.«, Ahmadnagar, Maharashtra, India |, aan © i | Ahilya Nagar Flyover, Bhavani Nagar, Anmadnagar, [S —, 4 PP) Maharashtra 414001, India —s, TTS he a gp) Lat 19.089555° Long 74.740934°, as |b, ZOOG, Cisne. hits. ¥",None,0
frame_00250.jpg,19.089445,74.740794,"ia ’ a Py, Tt) i,, 4 A ey Te., a re, i = wf ks, >= r <> ary Bt ‘, - Ahmadnagar, Maharashtra, India, 3pqr+j63 Ymca Ground, Bhavani Nagar,, Ahmadnagar, Maharashtra 414001, India, a a G",None,0
frame_00251.jpg,19.089335,74.740652,"— Catatc, Ahmadnagar, Maharashtra, India, 3pqr+j63 Ymca Ground, Bhavani Nagar,, Ahmadnagar, Maharashtra 414001, India, rs . ', fe ©",None,0
frame_00252.jpg,19.089224,74.740511,"ae a Ahmadnagar, Maharashtra, India, ' a oe 3paqr+j63 Ymca Ground, Bhavani Nagar,, NM ag ape Ahmadnagar, Maharashtra 414001, India, ; iL FR} vem s ta Lat 19.089224° Long 74.740511°, an hs, ’ Sn a. . r ee, ¥ yi, ° - SS oN, ive as =, Ages, . SA eae a",None,0
frame_00253.jpg,19.089115,74.740371,"= eee a §=Ahmadnagar, Maharashtra, India| =, js re. “~- 3paqr+j63 Ymca Ground, Bhavani Nagar, SPR, cf Ya Ahmadnagar, Maharashtra 414001, India iy, “eV ae, fa PAS ins 7 ,, PDN Er ak",None,0
frame_00254.jpg,Not found,Not found,"Ahmadnagar, MaharasnNtra, India, 3pqr+j63 Ymca Ground, Bhavani Nagar,, Ahmadnagar, Maharashtra 414001, India, al, sh cm",None,0
frame_00255.jpg,19.089009,74.74024,"WU LUE BQ ithe Uy JETT ER a Le Be Sy “ Oe, Bit 4 ~Ahmadnagar, Maharashtra, India |, ae Fel 4 3pqr+p32, Mh Msh 2, Maliwada, Ahmadnagar,, — ts FENG: ug © Maharashtra 414001, India, . « ~-x~ Lat 19.089009° Long 74.74024°, Se a ae",None,0
frame_00256.jpg,19.088361,74.739416,"as Use ., _ eet Ahmadnagar, Maharashtra, India, ihe ne mg * ii i 39, Daund Ahmednagar Rd, Market Yard Area, HeAaatR,, rt 7 t 5 hes Pies Maharashtra 414001, India, Anmadnagar, Maharashtra, or \eRT § ss Pig, ‘txt Ke die PO 2 Us Lat 19.088361° Long 74.739416°, Pes a, on ae",None,0
frame_00257.jpg,19.088251,74.739275,"a a,, Bone son agee Maharashtra, India | Se, Market Yard, Opposite To Newaskar Petrol Pump, ,, Maliwada, Ahmadnagar. Maharashtra 414001, India",None,0
frame_00258.jpg,19.08814,74.739124,"tw . = fa, wotaese-* ~~ |) Ahmadnagar, Maharashtra, India |, 355, Daund Ahmednagar Rd, Market Yard Area, =, gj  Ahmadnagar, Maharashtra 414001, India, 2, Lat 19.08814° Long 74.739124°",None,0
frame_00259.jpg,19.088021,74.738978,"Ahmadnagar, MaharasnNtra, India, 3pqq+4jr, Bhavani Nagar, Ahmadnagar,, Maharashtra 414001, India oo",None,0
frame_00260.jpg,19.086887,74.737502,"(gars nage 2, eae ‘S.. “, ay. s, HeAeate, Maharashtra, India, Opp Addcc Bank, Shop No 136, Near State Bank, See, Maliwada, 3é4e47, Maharashtra 414001, India ene &",None,0
frame_00261.jpg,19.08678,74.73736,"Ahmadnagar, Maharashtra, India, Shop No, 12, Mh Sh 142, Near Vachnalay, Opp. Ambar Plaza,, Bhavani Nagar, Anhmadnagar, Maharashtra 414001, India, ake",None,0
frame_00262.jpg,19.086672,74.737218,"Ahmadnagar, MaharasnNtra, India, 29, Pune - Ahilyanagar Hwy, Nandanvan Colony,, Bhavani Nagar, Anmadnagar, Maharashtra 414110, India",None,0
frame_00263.jpg,19.085367,74.735507,"i M, OWT! ss \, REE, apie ) Ahmadnagar, Maharashtra, India, gle “a ' f F rv 44, Nh 61, Maniknagar, Anmadnagar, Maharashtra, er"" bw a ‘gu Lat 19.085367° Long 74.735507°",None,0
frame_00264.jpg,19.085268,74.735377,"Heqcat, Maharashtra, Tatelrs, 44, Nh 753f, Maniknagar, Hea4eat, Maharashtra, 414001, India, Y ox",None,0
frame_00265.jpg,19.085168,74.735245,"Ahmadnagar, MaharasNtra, India, 44, Station Road, Shivaji Chowk, Maniknagar,, Ahmadnagar, Maharashtra 414001, India",None,0
frame_00266.jpg,19.085061,74.735116,"th, ae, A\\Nuue = =, eet of, —s a, Ahmadnagar, Maharashtra, India |, 44, Station Road, Shivaji Chowk, Maniknagar,, Ahmadnagar, Maharashtra 414001, India",None,0
frame_00267.jpg,19.085061,74.735116,"\< Hat as, So 2, : af Ahmadnagar, Maharashtra, India, 44, Station Road, Shivaji Chowk, Maniknagar,, Ahmadnagar, Maharashtra 414001, India, nt Lat 19.085061° Long 74.735116°, WEN, Na As",None,0
frame_00268.jpg,19.084955,74.734981,"‘pee he & Ahmadnagar, Maharashtra, India _, ‘ina = PG y 3ppm+2vf Nagar Elevated Flyover, Maliwada, are, oath. ee es Ahmadnagar, Maharashtra 414001, India, : ape Lat 19.084955° Long 74.734981° 8",None,0
frame_00269.jpg,19.084849,74.73485,"Ahmadnagar, MaharasnNtra, India § Se, 3ppm+2vf Nagar Elevated Flyover, Maliwada, 3, Ahmadnagar, Maharashtra 414001, India",None,0
frame_00270.jpg,19.084742,74.734714,"Ahmadnagar, Maharashtra, India |, 3ppm+2vf Nagar Elevated Flyover, Maliwada, a, Ahmadnagar, Maharashtra 414001, India 3",None,0
frame_00271.jpg,19.084633,74.734581,"i 2, fA Se Anmadnagar, Maharashtra, India |, ms ‘rn ae 320, Maniknagar, Ahmadnagar, Maharashtra, ZS q. ie"" tis 3 Lat 19.084633° Long 74.734581°",None,0
frame_00272.jpg,19.084633,74.734581,"‘@ Eee Ahmadnagar, Maharashtra, India|, Paar . 4 320, Maniknagar, Ahmadnagar, Maharashtra, 414001, India Ss",None,0
frame_00273.jpg,19.084522,74.734445,"ists aaa AG, iS fil oh Yy4, 3 ER &""4 Ahmadnagar, Maharashtra, India, oer dh % . sea 3pmm+rjj, Maliwada, Anmadnagar, Maharashtra, Bae. we 414001, India, (ae es ats, call Lat 19.084522° Long 74.734445°",None,0
frame_00274.jpg,19.083535,74.733186,"Ahmadnagar, MaharasNtra, India |>  ~—, 2, Maniknagar, Ahmadnagar, Maharashtra 414001,, India",None,0
frame_00275.jpg,19.081915,74.731115,"eet oa, ai ——, 4 es, awn > Fae, (i WBS, “s 4,, me Goggle pk, oes tL ole, rei a), ova =, Ahmadnagar, Maharashtra, India, 3pjj+rcq, Ahilyanagar - Daund Rd, Maliwada,, Ahmadnagar, Maharashtra 414001 India",None,0
frame_00276.jpg,19.081821,74.731001,"see HS a0 lg an =n, Sd vet 4) STASI, Maharashtra, India, ¥ a y 3pjjt+rcg, Ahilyanagar - Daund Rd, Maliwada,, at cMa® = HAGA, Maharashtra 414001, India, | me, &#- x a Rar ke Lat 19.081821° Long 74.731001°",None,0
frame_00277.jpg,19.081733,74.730884,"‘ ro 2 x ~ bof OD. ¢. = =e : 3 = E eran, A Oo, Fe => cos “. = Bs, <~,.4% Ahmadnagar, Maharashtra, India, ""4: Sey 141, New Tilak Rd, Maliwada, Ahmadnagar,, ~ Br ' Maharashtra 414001, India SS, S FRG Lat 19.081733° Long 74.730884° a, eS Wad EL eee) nen Se, SVR, ety",None,0
frame_00278.jpg,19.081644,74.730766,"Ahmadnagar, Maharashtra, India, 141, New Tilak Rd, Maliwada, Ahmadnagar,, Maharashtra 414001, India, “9 eS SE SS",None,0
frame_00279.jpg,19.081644,74.730766,"| -Gsog| fs, Ahmadnagar. Maharashtra, India, 141, New Tilak Rd, Maliwada, Ahmadnagar,, Maharashtra 414001, India, - Re 4",None,0
frame_00280.jpg,19.08157,74.730669,"| a ~ Ahmadnagar, Maharashtra, India — 3, oo me OK, ~ Sakkar Chowk, New Tilak Rd, Maliwada, 3, = TE ab “4a. Ahmadnagar, Maharashtra 414001, India, hy alte A: he / Lat 19.08157° Long 74.730669°, se “25 we. 1m she ROE Sa SRT",None,0
frame_00281.jpg,19.081521,74.730608,"= “i  Ahmadnagar, MaharasnNtra, India, eh, ae aS ¥ Sakkar Chowk, New Tilak Rd, Maliwada,, 2) pe om Ahmadnagar, Maharashtra 414001, India, Goa sews epoed Lat 19.081521° Long 74.730608°, . 3 ets, Say EA ANY",None,0
frame_00282.jpg,19.081465,74.730538,"Ahmadnagar, Maharashtra, India ©, Sakkar Chowk, New Tilak Rd, Maliwada,, Ahmadnagar, Maharashtra 414001, India",None,0
frame_00283.jpg,19.081384,74.730457,"Ahmadnagar, Maharashtra, India, Sakkar Chowk, New Tilak Rd, Maliwada,, Ahmadnagar, Maharashtra 414001, India",None,0
frame_00284.jpg,19.081384,74.730457,"Sia ane J. Hi, Th Sy ble ss “4, Re (Wa - Then, Ahmadnagar, MaharasNtra, India |, Sakkar Chowk, New Tilak Rd, Maliwada,, Ahmadnagar, Maharashtra 414001, India",None,0
frame_00285.jpg,19.081282,74.730371,"ede, Maharashtra, India, Sakkar Chowk, New Tilak Rd, Maliwada, Heat,, Maharashtra 414001, India",None,0
frame_00286.jpg,19.081164,74.730296,"SeAeaie, Maharashtra, India, 1, Mh Sh 10, Sanjay Nagar, Maliwada, Heda,, Maharashtra 414001, India",None,0
frame_00287.jpg,19.081032,74.73024,"i site, Se ee ee, Hedeaez, Maharashtra, India, 1, Mh Sh 10, Sanjay Nagar, Maliwada, Heder,, Maharashtra 414001, India",None,0
frame_00288.jpg,19.080889,74.730199,"Ware)., 2%. weAeanx, Maharashtra, India, "" = ni aes . ., ey aglot S 125, Kothi - Yash Palace Rd, Maniknagar, Heat,, ye B- e983"" =Maharashtra 414001, India, ot Z * reer et tg Lat 19.080889° Long 74.730199°, Oars",None,0
frame_00289.jpg,19.080889,74.730199,"Nias, ve i, eet y pet, i pity tf wis te, Te ek. 3feAeamR, Maharashtra, India Ls, , *S 5, = te ay “4 125, Kothi - Yash Palace Rd, Maniknagar, Heat,, "" coer eh Maharashtra 414001, India, » Ene! ~~ Lat 19.080889° Long 74.730199°",None,0
frame_00290.jpg,19.080101,74.73007,"Ahmadnagar, Maharashtra, India as, on 94, Pune - Ahilyanagar Hwy, Maniknagar,, , Ahmadnagar, Maharashtra 414001, India",None,0
frame_00291.jpg,19.07996,74.730081,"Ths i wel=sSe). Pes 2 c get, ) ca io, 1/3, Maniknagar. HeACAT, Maharashtra 414001,, India",None,0
frame_00292.jpg,19.079824,74.730103,"1/3, Maniknagar, Ahmadnagar, Maharashtra 414001, India",None,0
frame_00293.jpg,19.07942,74.7302,"-_ CANCER, Btuaean, ‘b HOSPITAL, amera, ame, 17, Ahilyanagar - Daund Rd, Maniknagar,, Ahmadnagar, Maharashtra 414001, India",None,0
frame_00294.jpg,19.079312,74.73023,"MARAT, 4 BOSPITAL, Ahmadnagar, Maharashtra, India, Bhansali Showroom, Opp. Shilpa Apartments Sukkur Chowk,, Nagar - Pune Road, Maniknagar, Anmadnagar, Maharashtra, 414001, India",None,0
frame_00295.jpg,19.079227,74.730245,"YOU, We ‘area, BHARATI, HOSPITAL, “gl —, WT nt, Ahmadnagar, Maharashtra, India, Bhansali Showroom, Opp. Shilpa Apartments Sukkur Chowk,, Nagar - Pune Road, Maniknagar, Anmadnagar, Maharashtra, 414001, India",None,0
frame_00296.jpg,19.118519,74.734996,"Ahmadnagar, Maharashtra, India, Shop No 6, Civil Hudco, Near Premdan Chowk,, Savedi, Anhmadnagar, Maharashtra 414003, India",None,0
frame_00297.jpg,19.118519,74.734996,"e “Le, Rea ots 4 Ahmadnagar, Maharashtra, India, ¥. ees pe Shop No 6, Civil Hudco, Near Premdan Chowk,, 4 Savedi, Anmadnagar, Maharashtra 414003, India NN",None,0
frame_00298.jpg,19.118523,74.734943,"ag Gok te, ‘ OO sigei-es,, ae eae Li, HeAqeae, Maharashtra, India, Shop No 6, Civil Hudco, Near Premdan Chowk,, Savedi, Heese, Maharashtra 414003, India",None,0
frame_00299.jpg,19.1181,74.733137,"Ahmadnagar, Maharashtra, India, Bhagyoday Society, Fp110, Professor Colony Chowk Rd, New, Premdan Hudco, Savedi, Anmadnagar, Maharashtra 414003,, India",cracks: 1,1
frame_00300.jpg,19.118078,74.733053,"Ahmadnagar, Maharashtra, India, Bhagyoday Society, Fp110, Professor Colony Chowk Rd, New, Premdan Hudco, Savedi, Anhmadnagar, Maharashtra 414003,, India",None,0
frame_00301.jpg,19.118056,74.73298,"aedqean, Maharashtra, India, 103, Adarsha Colony, Bishop Loyed Colony, Héaex,, Maharashtra 414001, India <, wy fhe",None,0
frame_00302.jpg,19.118044,74.732934,"Ahmadnagar, Maharashtra, India &, 103, Adarsha Colony, Bishop Loyed Colony,, Ahmadnagar, Maharashtra 414001, India",cracks: 1,1
frame_00303.jpg,19.118008,74.732776,"aedeate, Maharashtra, India, 103, Adarsha Colony, Bishop Loyed Colony, S@4e-71X, bas, Maharashtra 414001, India s, J Lat 19.118008° Long 74.732776°",None,0
frame_00304.jpg,19.117816,74.732004,"ia Ua ,, enn 5, a. a, Ahmadnagar, Maharashtra, India, Bhagyoday Society, 6/1, New Premdan Hudco,, Savedi, Anmadnagar, Maharashtra 414003, India",manhole: 1,1
frame_00305.jpg,19.117791,74.731907,"Ahmadnagar, MaharasnNtra, India, Shop No 22 B Wing Mhada Building Professor, Colony, savedi,ahilyanagar-414001, Savedi, Ahmadnagar,, Maharashtra 414003, India",None,0
frame_00306.jpg,19.117767,74.731786,"Ahmadnagar, Maharashtra, India, 4p9j+6j3, Premdan Hudco, Savedi, Ahmadnagar,, Maharashtra 414003, India",None,0
frame_00307.jpg,19.117741,74.731646,"47 Ahmadnagar, Maharashtra, India, aia vas» G 4p9j+6j3, Premdan Hudco, Savedi, Ahmadnagar,, Ye ate Maharashtra 414003, India, a ra “a 6 6, aunt Lat 19.117741° Long 74.731646",None,0
frame_00308.jpg,19.117741,74.731646,"Ahmadnagar, Maharashtra, India, 4p9j+6j3, Premdan Hudco, Savedi, Anhmadnagar,, Maharashtra 414003, India",None,0
frame_00309.jpg,19.117713,74.731515,"Ahmadnagar, Maharashtra, India, 4p9j+6j3, Premdan Hudco, Savedi, Ahmadnagar,, Maharashtra 414003, India",None,0
frame_00310.jpg,19.117688,74.731395,"aedeae, Maharashtra, India, 42, New Premdan Hudco, Savedi, Heda,, Maharashtra 414003, India, wit ole.",None,0
frame_00311.jpg,19.11766,74.731283,"Ahmadnagar, Maharasntra, India, 1, Chowk, Premdan Hudco, Savedi, Ahmadnagar,, Maharashtra 414003, India, i ey Lat 19.11766° Long 74.731283°, . ""uae",None,0
frame_00312.jpg,19.117638,74.731202,"Ahmadnagar, Maharashtra, India, 1, Chowk, Premdan Hudco, Savedi, Ahmadnagar,, Maharashtra 414003, India, tT.",None,0
frame_00313.jpg,19.117618,74.731125,"saedeate, Maharashtra, India, 1, Chowk, Premdan Hudco, Savedi, HeAaatkK,, Maharashtra 414003, India",None,0
frame_00314.jpg,19.117605,74.731077,"Ahmadnagar, Maharashtra, India |, 1, Chowk, Premdan Hudco, Savedi, Ahmadnagar,, , India",pothole: 1,1
frame_00315.jpg,19.117605,74.731077,"Ahmadnagar, Maharashtra, India, 1, Chowk, Premdan Hudco, Savedi, Ahmadnagar,, Maharashtra 414003, India","cracks: 1, manhole: 1",2
frame_00316.jpg,19.117574,74.730918,"Ahmadnagar, Maharashtra, India, 1, Chowk, Premdan Hudco, Savedi, Ahmadnagar,, Maharashtra 414003, India",None,0
frame_00317.jpg,19.117546,74.730811,"Ahmadnagar, Maharashtra, India, 4p9j+276, Professor Colony Chowk Rd, Adarsha Colony,, Bishop Lloyd Colony, Ahmadnagar, Maharashtra 414003, India",None,0
frame_00318.jpg,19.11752,74.730702,"Ahmadnagar, Maharashtra, India, 4p9j+276, Professor Colony Chowk Rd, Adarsha Colony,, Bishop Lloyd Colony, Ahmadnagar, Maharashtra 414003, India§, | Lat 19.11752° Long 74.730702°",None,0
frame_00319.jpg,19.11752,74.730702,"Ahmadnagar, Maharashtra, India, 4p9j+276, Professor Colony Chowk Rd, Adarsha Colony,, Bishop Lloyd Colony, Ahmadnagar, Maharashtra 414003, India",None,0
frame_00320.jpg,19.117484,74.730576,"Ahmadnagar, Maharashtra, India, 4p9j+276, Professor Colony Chowk Rd, Adarsha Colony,, Bishop Lloyd Colony, Ahmadnagar, Maharashtra 414003, India",None,0
frame_00321.jpg,19.117449,74.730447,"Ahmadnagar, Maharashtra, India, 10, Police Colony Chowk Rd, Adarsha Colony, State Bank, Colony, Bishop Lloyd Colony, Anmadnagar, Maharashtra, 414003, India",None,0
frame_00322.jpg,19.117416,74.730311,"Ahmadnagar, Maharashtra, India, Premdan Chowk, Near Noble Hospital, Above Anmal Paints,, Adarsha Colony, Savedi, Anmadnagar, Maharashtra 414003,, India, = Lat 19.117416° Long 74.730311°",None,0
frame_00323.jpg,19.117134,74.72933,"ioe it] acl oN * ar, Ue SMS, Ahmadnagar, Maharashtra, India, 18, Savedi Rd, Savedi, Ahmadnagar, Maharashtra, 414003, India",cracks: 1,1
frame_00324.jpg,19.117134,74.72933,"Ahmadnagar, Maharashtra, India «, 18, Savedi Rd, Savedi, Ahmadnagar, Maharashtra, 414003, India",None,0
frame_00325.jpg,19.117066,74.72932,"Ahmadnagar, MaharasnNtra, India, 18, Savedi Rd, Savedi, Ahmadnagar, Maharashtra, 414003, India, = Lat 19.117066° Long 74.72932°",None,0
frame_00326.jpg,19.116985,74.72934,"Ahmadnagar, Maharashtra, India, 18, Savedi Rd, Savedi, Ahmadnagar, Maharashtra, 414003, India, @ Lat 19.116985° Long 74.72934°",None,0
frame_00327.jpg,19.116871,74.729358,"BS ‘ id, 4p8h+qp5, Savedi, Anmadnagar, Maharashtra, 414003, India, @ Lat 19.116871° Long 74.729358°, aie es od",None,0
frame_00328.jpg,19.116743,74.72939,"Ahmadnagar, Maharashtra, India, 175/1, Savedi Rd, Adarsha Colony, Bishop Lloyd, Colony, Ahmadnagar, Maharashtra 414001, India",None,0
frame_00329.jpg,Not found,Not found,"Ahmadnagar, Maharashtra, India, 175/1, Savedi Rd, Adarsha Colony, Bishop Lloyd, | Colony, Ahmadnagar, Maharashtra 414001, India, Lat 19.116743° rong 74. 72939""",None,0
frame_00330.jpg,19.116603,74.729425,"Alleyes [BAace, On YOU, 'NOVAFAa, Nagar- M.G, Road, Kapad Bazaar, Ahmadnagar, Maharashtra, India }, 32, Aurangabad - Ahmednagar - Pune Hwy, Mahavir, Nagar, Ahmadnagar, Maharashtra 414003, India",None,0
frame_00331.jpg,19.116459,74.729464,"LT YZE R’, fasion NOVAFAB |, lya Nagar- M.G. Road, Kapad Bazaar, Ahmadnagar, Maharashtra, India, 32, Aurangabad - Ahmednagar - Pune Hwy, Mahavir, Nagar, Anhmadnagar, Maharashtra 414003, India, if yy",None,0
frame_00332.jpg,19.116313,74.729506,"sedeane, Maharashtra, India, 32, Aurangabad - Ahmednagar - Pune Hwy, Mahavir, Nagar, Seder, Maharashtra 414003, India, SUNY ie, Nee ttt Ve hit",None,0
frame_00333.jpg,19.116167,74.729552,"Ahmadnagar, Maharashtra, India, 140, Adarsha Colony, State Bank Colony, Bishop Lloyd, Colony, Anmadnagar, Maharashtra 414003, India, PS ESE 5., p47, »), Le prey)",None,0
frame_00334.jpg,19.116167,74.729552,"Ahmadnagar, Maharashtra, India, 140, Adarsha Colony, State Bank Colony, Bishop Lloyd, Colony, Anmadnagar, Maharashtra 414003, India, ~@ Lat 19.116167° Long 74.729552°",cracks: 1,1
frame_00335.jpg,19.116023,74.729598,"Ahmadnagar, Maharashtra, India, 4p8h+9wm, Savedi Rd, Adarsha Colony, Savedi,, Ahmadnagar, Maharashtra 414003, India, , PUT ee Y 1 aa ike 4 ’, P ede Ue by Wie WATS ad, { away ‘UN 4 avai va pS ”, “| re , J fj s tA » J a",None,0
frame_00336.jpg,19.11589,74.729642,"FRAN wep,, TL er, g A rath Ted gs, ce ples dja uate, Ahmadnagar, Maharashtra, India, 4p8h+9wm, Savedi Rd, Adarsha Colony, Savedi,, Ahmadnagar, Maharashtra 414003, India, rz ~~ De s Sete ote rf J cP; ae ¥ vi Deets wee ¢ < See aa yw, Ve Alek g as aye ee 4 AMR as “Wo "" : AS ay Saha ita gh eS a eS ne, Ae IAA ie yy . t ‘one ¢ ove, f us ey bP ee vee, yf Pe ed ee - ' Se oe lags , ate x veatuah =: 4, fas ‘",None,0
frame_00337.jpg,19.11576,74.729681,"HeAeax, Maharashtra, India, 176/1, Aurangabad - Ahmednagar - Pune Hwy, a, Mahavir Nagar, #¢4e4R, Maharashtra 414003, India) =, » Lat 19.11576° Long 74.729681° SS, Ain",None,0
frame_00338.jpg,19.115631,74.729719,"Ahmadnagar, Maharashtra, India, 176/1, Aurangabad - Ahmednagar - Pune Hwy, Mahavir, Nagar, Anmadnagar, Maharashtra 414003, India",None,0
frame_00339.jpg,19.115631,74.729719,"Ahmadnagar, Maharashtra, India, 176/1, Aurangabad - Anmednagar - Pune Hwy, Mahavir, Nagar, Anmadnagar, Maharashtra 414003, India",None,0
frame_00340.jpg,19.11549,74.72975,"Ahmadnagar, Maharashtra, India, Sai lcon Sanmitra Housing Society Savedi Ahmednagar, 414003 Sai Icon 95/3 Sanmitra Housing Society, Savedi Rd,, Mahavir Nagar, Anmadnagar, Maharashtra 414003, India",None,0
frame_00341.jpg,19.115344,74.72979,"HeAGAT, Maharashtra, India =, | 11, Adarsha Colony, State Bank Colony, Bishop Lloyd — —, “8 Colony, Hee, Maharashtra 414003, India PI",None,0
frame_00342.jpg,19.115193,74.729834,"_Ahmadnagar, Maharashtra, India BSS8s, = 11, Adarsha Colony, State Bank Colony, Bishop Lloyd : AS, Colony, Ahmadnagar, Maharashtra 414003, India RO SESS",None,0
frame_00343.jpg,19.115044,74.729879,"th’! ee oye ey!, ede, Maharashtra, India, a”. 94, Savedi Rd, Borude Mala, Hé4#eaZ, Maharashtra",None,0
frame_00344.jpg,19.115044,74.729879,"sedqeate, Maharashtra, India, 94, Savedi Rd, Borude Mala, Hes#eatz, Maharashtra, 414001, India",None,0
frame_00345.jpg,19.114893,74.729917,"Bes ieee, Ahmadnagar, Maharashtra, India, 94, Savedi Rd, Borude Mala, Ahmadnagar,, Maharashtra 414001, India",None,0
frame_00346.jpg,19114259,74.730102,"=. ‘am in a a, +o oe, Heed, Maharashtra, India, 4, Ahilyanagar- Manmad Rd, Gaikwad Colony, Bishop, Lloyd Colony, Hed4¢atx, Maharashtra 414003, India, © Lat 19114259° Long 74.730102°",None,0
frame_00347.jpg,19.111878,74.731534,"laveeqa aie f, © Ahmadnagar, Maharashtra, India, 10, Aurangabad - Ahmednagar - Pune Hwy, Ashirwad Colony,, Bishop Lloyd Colony, Anmadnagar, Maharashtra 414003, India, PIS TARP CAN TEL ES, afvae’ ey > Pa tie ras",None,0
frame_00348.jpg,19.111746,74.731645,"om Progenesis, FER Taet HET, waa watetorch a exe exer dealt, HIM aifeearaare QTE!, ees eel, = Ahmadnagar, Maharashtra, India, 199/4, Mahavir Nagar, Bishop Lloyd Colony,, Ahmadnagar, Maharashtra 414001, India",None,0
frame_00349.jpg,19.111615,74.73175,"Ahmadnagar, Maharashtra, India, 199/4, Mahavir Nagar, Bishop Lloyd Colony,, Ahmadnagar, Maharashtra 414001, India, Uy at",None,0
frame_00350.jpg,19.111482,74.73186,"Ahmadnagar, Maharashtra, India, 199/4, Mahavir Nagar, Bishop Lloyd Colony,, Ahmadnagar, Maharashtra 414001, India",None,0
frame_00351.jpg,19.111482,74.73186,"Ahmadnagar, Maharashtra, India, 199/4, Mahavir Nagar, Bishop Lloyd Colony,, Ahmadnagar, Maharashtra 414001, India, re)",None,0
frame_00352.jpg,19.111347,74.731968,"_ Ahmadnagar, Maharashtra, India, 2 4p6j+gvh, Bishop Lloyd Colony, Ahmadnagar,, Aan, @ Lat 19.111347° Long 74.731968°, ey eit po ie es",None,0
frame_00353.jpg,19.111216,74.732075,"aeAeae, Maharashtra, India, 9, Shirdi Rd, Ashirwad Colony, Bishop Lloyd Colony,, sede, Maharashtra 414003, India, je Lat 19.111216° Long 74.732075°",None,0
frame_00354.jpg,19.11058,74.732606,"3, Ahilyanagar - Solapur Rd, Darewadi,, Ahmadnagar, Maharashtra 414110, India",None,0
frame_00355.jpg,19.110459,74.732701,"Ahmadnagar, Maharashtra, India, 3, Ahilyanagar - Solapur Rd, Darewadi,, Ahmadnagar, Maharashtra 414110, India",None,0
frame_00356.jpg,19.110459,74.732701,"Ahmadnagar, Maharashtra, India, 3, Ahilyanagar - Solapur Rd, Darewadi,, Ahmadnagar, Maharashtra 414110, India, FYE TS pe Jet ee 4 me TL",None,0
frame_00357.jpg,19.11034,74.732796,"Ahmadnagar, Maharashtra, India, 3, Ahilyanagar - Solapur Rd, Darewadi,, Ahmadnagar, Maharashtra 414110, India",None,0
frame_00358.jpg,19.110224,74.732883,"Ahmadnagar, Maharashtra, India, 4p5m+w45, Patrakar Chowk, Tarakpur,, Ahmadnagar, Maharashtra 414001, India",None,0
frame_00359.jpg,19.110112,74.732967,"Ahmadnagar, Maharashtra, India, 4p5m+w45, Patrakar Chowk, Tarakpur,, Ahmadnagar, Maharashtra 414001, India",cracks: 1,1
frame_00360.jpg,19.10943,74.733491,"Tejashree Bunglow 1st Floor, Patrakar Vasahat Patrakar, Chowk, Opposite Sakal News Paper Office, Tarakpur, Aedes,, Maharashtra 414001, India, f= Lat 19.10943° Long 74.733491°, —™ 16",None,0
frame_00361.jpg,19.109336,74.733575,"i Ahmadnagar, Maharashtra, India F =, = Ap5m+paf, Tarakpur, Anmadnagar, Maharashtra, 414001, India",None,0
frame_00362.jpg,19.109226,74.73366,"ADE te, es,, , Ca, Ahmadnagar, Maharashtra, India, 4p5m+paf, Tarakpur, Anhmadnagar, Maharashtra, 414001, India",cracks: 2,2
frame_00363.jpg,19.109124,74.73375,"’ 384) Ahmadnagar, Maharashtra, India, = 4p5m+paf, Tarakpur, Anmadnagar, Maharashtra, + as, wt os /=, $2 1 Ae Se = 414001, India, Gow Ry Lat 19.109124° Long 74.73375°",None,0
frame_00364.jpg,19.109025,74.733837,"Ahmadnagar, Maharashtra, India &, 4p5m+paf, Tarakpur, Anhmadnagar, Maharashtra, 414001, India, 16/05",None,0
frame_00365.jpg,19.109025,74.733837,"Ahmadnagar, Maharashtra, India, 4p5m+paf, Tarakpur, Ahmadnagar, Maharashtra, 414001, India",None,0
frame_00366.jpg,19.10892,74.733921,"Ahmadnagar, Maharashtra, India, 4p5m+paf, Tarakpur, Anhmadnagar, Maharashtra, 414001, India",cracks: 1,1
frame_00367.jpg,19.110123,74.729557,"Ahmadnagar, Maharashtra, India, 4p6h+2vp, Balikashram Rd, Borude Mala,, Ahmadnagar, Maharashtra 414003, India",cracks: 1,1
frame_00368.jpg,19.11024,74.729537,"798 A ea Pp, na RP, oer, I ., er eo = Ahmadnagar, Maharashtra, India, *.~, 2"" il Bhutkarwadi, Savedi Road, Balikashram Rd, In Front Of, Chintamani Hospital And Urology Centre, Sudke Mala,, Ahmadnagar, Maharashtra 414003, India",cracks: 1,1
frame_00369.jpg,19.11024,74.729537,"Ahmadnagar, Maharashtra, India, Bhutkarwadi, Savedi Road, Balikashram Rd, In Front Of, Chintamani Hospital And Urology Centre, Sudke Mala,, Ahmadnagar, Maharashtra 414003, India",cracks: 3,3
frame_00370.jpg,19.110353,74.729502,"Ahmadnagar, Maharashtra, India Bas, Saragam Apartment, Balikashram Rd, Tarakpur,, Ahmadnagar, Maharashtra 414001, India",cracks: 3,3
frame_00371.jpg,19.110353,74.729502,"-* & Ahmadnagar, Maharashtra, India, ~@< Saragam Apartment, Balikashram Rd, Tarakpur,, Ahmadnagar, Maharashtra 414001, India",cracks: 3,3
frame_00372.jpg,19.110353,74.729502,"sGoogle™, g a rs, aye et, Ahmadnagar, Maharashtra, India, Saragam Apartment, Balikashram Rd, Tarakpur,, Ahmadnagar, Maharashtra 414001, India",cracks: 2,2
frame_00373.jpg,19.110353,74.729502,"Ahmadnagar, Maharashtra, India, Saragam Apartment, Balikashram Rd, Tarakpur,, Ahmadnagar, Maharashtra 414001, India",cracks: 1,1
frame_00374.jpg,19.110463,74.729476,"WitG WeyHBeis ||), \ sta tuta\ beta Rati, \\ ifs, Se tate fred fh fred, 7 \ were!, Ahmadnagar, Maharashtra, India, Saragam Apartment, Balikashram Rd, Tarakpur,, Ahmadnagar, Maharashtra 414001, India",cracks: 1,1
frame_00375.jpg,19.110463,74.729476,"Ahmadnagar, Maharashtra, India, Saragam Apartment, Balikashram Rd, Tarakpur,, Ahmadnagar, Maharashtra 414001, India",None,0
frame_00376.jpg,19.110574,74.729441,"gid he ds peta, ¥ 4 soe ies A,, y hs eehe *, enon -, nave |, Ahmadnagar, Maharashtra, India, Mahavirnagar, Borude Mala, Anhmadnagar,, Maharashtra 414003, India",cracks: 1,1
frame_00377.jpg,19.110574,74.729441,"Ahmadnagar, Maharashtra, India, Mahavirnagar, Borude Mala, Ahmadnagar,, Maharashtra 414003, India","manhole: 1, cracks: 1",2
frame_00378.jpg,19.110574,74.729441,"Ahmadnagar, Maharashtra, India, Mahavirnagar, Borude Mala, Ahmadnagar,, Maharashtra 414003, India",None,0
frame_00379.jpg,19.110702,74.729409,"Ahmadnagar, Maharashtra, India Hs, Mahavirnagar, Borude Mala, Ahmadnagar,, Maharashtra 414003, India",cracks: 1,1
frame_00380.jpg,19.110702,74.729409,"Ahmadnagar, Maharashtra, India, Mahavirnagar, Borude Mala, Anhmadnagar,, Maharashtra 414003, India",None,0
frame_00381.jpg,19.110702,74.729409,"Ahmadnagar, Maharashtra, India &, Mahavirnagar, Borude Mala, Anmadnagar,, Maharashtra 414003, India",cracks: 1,1
frame_00382.jpg,19.110702,74.729409,"Ahmadnagar, Maharashtra, India, Mahavirnagar, Borude Mala, Anmadnagar,, Maharashtra 414003, India, t. ae",cracks: 1,1
frame_00383.jpg,19.111473,74.729157,"T, gu eiin ene, Ahmadnagar, Maharashtra, India, 4p6h+hjv, Borude Mala, Anhmadnagar, Maharashtra, 414003, India",None,0
frame_00384.jpg,19.111473,74.729157,"wwe, * ‘a i og, | mw ae, ward }, 4 moon, Cae, — EE, Se E>"", Ahmadnagar, Maharashtra, India, 4p6h+hjv, Borude Mala, Ahmadnagar, Maharashtra, 414003, India",cracks: 1,1
frame_00385.jpg,19.111553,74.729136,"Ahmadnagar, Maharashtra, India, 4p6h+hjv, Borude Mala, Anmadnagar, Maharashtra, 414003, India",cracks: 2,2
frame_00386.jpg,19.111649,74.7291,"£5 5, SEs . Ahmadnagar, Maharashtra, India, ro 41/1, Balikashram Rd, Suman Colony, Mahavir Nagar,, se Borude Mala, Ahmadnagar, Maharashtra 414001, India, 2 Ld v",cracks: 2,2
frame_00387.jpg,19.111759,74.729062,"Ahmadnagar, Maharashtra, India, 41/1, Balikashram Rd, Suman Colony, Mahavir Nagar,, Borude Mala, Ahmadnagar, Maharashtra 414001, India",cracks: 2,2
frame_00388.jpg,19.111759,74.729062,"Ahmadnagar, Maharashtra, India, 41/1, Balikashram Rd, Suman Colony, Mahavir Nagar,, Borude Mala, Anhmadnagar, Maharashtra 414001, India",cracks: 2,2
frame_00389.jpg,19.111759,74.729062,"Ahmadnagar, Maharashtra, India, 41/1, Balikashram Rd, Suman Colony, Mahavir Nagar,, Borude Mala, Ahmadnagar, Maharashtra 414001, India",cracks: 2,2
frame_00390.jpg,19.111759,74.729062,Unknown,cracks: 4,4
frame_00391.jpg,19.111875,74.72903,"Ahmadnagar, Maharashtra, India =, 4p6h+pgw, Borude Mala, Ahmadnagar, Maharashtra Seen, - 414003, India <, ” We.",cracks: 1,1
frame_00392.jpg,19.111875,74.72903,"=i"" Ahmadnagar, Maharashtra, India & SS, %,@ 4p6h+pgw, Borude Mala, Ahmadnagar, Maharashtra jee, ee 414003, =",cracks: 3,3
frame_00393.jpg,19.111994,74.728988,"Ahmadnagar, Maharashtra, India &, 4p6h+pgw, Borude Mala, Ahmadnagar, Maharashtraiiem, 414003, India .","manhole: 1, cracks: 2",3
frame_00394.jpg,19.111994,74.728988,"Ahmadnagar, Maharashtra, India, 4p6h+pgw, Borude Mala, Ahmadnagar, Maharashtra}, 414003, India, “Lat 19.111994° Long 74.728988°",cracks: 1,1
frame_00395.jpg,19.111994,74.728988,"Ahmadnagar, Maharashtra, India &, 4p6h+pgw, Borude Mala, Ahmadnagar, Maharashtra, 414003, India",cracks: 1,1
frame_00396.jpg,19.112111,74.72895,"Ahmadnagar, Maharashtra, India Sa, 3a/4, Mahavir Nagar, Borude Mala, Anmadnagar,, Maharashtra 414001, India, Pat ey YA",cracks: 1,1
frame_00397.jpg,19.112111,74.72895,"Ahmadnagar, Maharashtra, India tess, 3a/4, Mahavir Nagar, Borude Mala, Ahmadnagar,, Maharashtra 414001, India",cracks: 2,2
frame_00398.jpg,19.112111,74.72895,"Ahmadnagar, Maharashtra, India, 3a/4, Mahavir Nagar, Borude Mala, Anmadnagar, ;, Maharashtra 414001, India, — os",None,0
frame_00399.jpg,19.11221,74,"£7 a Sa, mn iN), ~ Ahmadnagar, Maharashtra, India, 3a/4, Mahavir Nagar, Borude Mala, Ahmadnaaar, Maharashtra 414001, India",cracks: 1,1
frame_00400.jpg,Not found,Not found,"WN "" ons, | Cc, { ff =, Lice, Ahmadnaga, India, r, Borude Mala, oO), fe], La}, 3a/4, Mahavir Naga, Maharashtra 414001, aeims 16/05/202, fe’ Y /OS/, ate, ile, cogs, fofe)",cracks: 2,2
frame_00401.jpg,19.11221,74.728919,"seoEs, aed Ge, Ahmadnagar, Maharashtra, India, 3a/4, Mahavir Nagar, Borude Mala, Anmadnagar,, Maharashtra 414001, India",cracks: 1,1
frame_00402.jpg,Not found,Not found,"Ind, Mahavir Naga, , India, 730, Maharashtra, Suman Colony,, Qal, o9)], ie), nom, co +, (08), <q O, 0 O, — ST, o OG, [o> ite), ae), Cc o, Oo x, Lia, Ahmadnagar, flies, i ee",cracks: 1,1
frame_00403.jpg,19.112312,74.728883,"Tate, Suman Colony, Mahavir Nagar,, Tate |, Maharashtra 414003, Balikashram Rd, 140), WY), 140), xe), Lge), Ahmadnaga",cracks: 1,1
frame_00404.jpg,19.112426,74.728839,"; Ahmadnagar, Rishaiashtra, India, 2, Balikashram Rd, Suman Colony, Mahavir Nagar, §& SS, Ahmadnagar, Maharashtra 414003, India",None,0
frame_00405.jpg,19.112426,74.728839,"| Ahmadnagar, Maharashtra, India, 2, Balikashram Rd, Suman Colony, Mahavir Nagar,, Ahmadnagar, Maharashtra 414003, India",None,0
frame_00406.jpg,19.112426,74.728839,"Ahmadnagar, Maharashtra, India, 2, Balikashram Rd, Suman Colony, Mahavir Nagar,, Ahmadnagar, Maharashtra 414003, India",None,0
frame_00407.jpg,19.112426,74.728839,"Ahmadnagar, Maharashtra, India, «| 2, Balikashram Rd, Suman Colony, Mahavir Nagar,, ee Ahmadnagar, Maharashtra 414003, India, sab Lat 19.112426° Long 74.728839°",None,0
frame_00408.jpg,19.112544,74.728792,"Ahmadnagar, Maharashtra, India, 2, Balikashram Rd, Suman Colony, Mahavir Nagar,, Ahmadnagar, Maharashtra 414003, India",cracks: 1,1
frame_00409.jpg,19.112544,74.728792,"Ahmadnagar, Maharashtra, India, 2, Balikashram Rd, Suman Colony, Mahavir Nagar,, Ahmadnagar, Maharashtra 414003, India, Se we aes” Lat 19.112544° Long 74.728792°, E Jat GW = ,",cracks: 1,1
frame_00410.jpg,19.112666,74.728745,"Hedeate, Maharashtra, India, 2, Balikashram Rd, Suman Colony, Mahavir Nagar,, serqaai, Maharashtra 414003, India",cracks: 2,2
frame_00411.jpg,19.113308,74.728516,"Ahmadnagar, MaharasnNtra, India, 01, Bhutkarwadi Rd, Mahavir Nagar, Ahmadnagar,, Maharashtra 414001, India",cracks: 1,1
frame_00412.jpg,19.113308,74.728516,"Ahmadnagar, Maharashtra, India =, 01, Bhutkarwadi Rd, Mahavir Nagar, Anhmadnagar, (eee, Maharashtra 414001, India","cracks: 1, manhole: 1",2
frame_00413.jpg,19.113736,74.728369,"Ahmadnagar, Maharashtra, India, Bhutakarvadi, Balikashram Rd, Mahavir Nagar,, Ahmadnagar, Maharashtra 414003, India",cracks: 1,1
frame_00414.jpg,19.113736,74.728369,"Ahmadnagar, Maharashtra, India, Bhutakarvadi, Balikashram Rd, Mahavir Nagar,, Ahmadnagar, Maharashtra 414003, India, Ser oat |",None,0
frame_00415.jpg,19.113856,74.728327,"paleiaey, Ahmadnagar, Maharashtra, India, 279/10, Balikashram Rd, Bhutkarwadi, Borude Mala,, Ahmadnagar, Maharashtra 414001, India",cracks: 1,1
frame_00416.jpg,19.114388,74.728148,"Hedeatz, Maharashtra, India, Shop No. 3, Opp Laxmi Garden, Balikaashram Rasen, Road,ahmednagar,madhya Pradesh, Mahavir Nagar, Sede"", See, Maharashtra 414003, India S",cracks: 1,1
frame_00417.jpg,19.114512,74.728113,"Ahmadnagar, Maharashtra, India, 16, Balikashram Rd, Borude Mala, Anmadnagar,, A Maharashtra 414001, India, Ja | Lat 19.114512° Long 74.728113°, ea ¥",cracks: 1,1
frame_00418.jpg,19.114512,74.728113,"Ahmadnagar, MaharasnNtra, India ©, 16, Balikashram Rd, Borude Mala, Ahmadnagar,, Maharashtra 414001, India",cracks: 3,3
frame_00419.jpg,19.114645,74.728073,"mh ye, pe., Ahmadnagar, MaharasNtra, India, Bhutkarwadi, Balikashram Road, Bhutkarwadi Rd, Near, Mahalaxmi Garden, Borude Mala, Ahmadnagar, Maharashtra, 414003, India",None,0
frame_00420.jpg,19.114906,74.727997,"a ae, ha. x, Y ¢. Se, y . ee 2, Ahmadnagar, Maharashtra, India ===, =. 6 ¥ 2 <a 10, Balikashram Rd, Audumbar Colony, Borude Mala, | es =, , ha) ree A@ 3 Ahmadnagar, Maharashtra 414003, India SSE, ei hie Fy a — 23",cracks: 1,1
frame_00421.jpg,19.115035,74.727965,"hmadnagar, Maharashtra, India Be, 10, Balikashram Rd, Audumbar Colony, Borude Mala, Bassas, Ahmadnagar, Maharashtra 414003, India Sun",None,0
frame_00422.jpg,19.115289,74.727885,"Audumbar Colony, 10, Balikashram Rd, Borude Mala,, Ahmadnagar, Maharashtra 414003, India",cracks: 2,2
frame_00423.jpg,19.115289,74.727885,"Goo, ie Pot Ore, ee ot eh eee, * Ahmadnagar, Maharashtra, India Ga=, Audumbar Colony, 10, Balikashram Rd, Borude Mala, Bae, Ahmadnagar, Maharashtra 414003, India 5S :",cracks: 1,1
frame_00424.jpg,19.115289,74.727885,"Whit TTT, Peet T yt, Li pe, Ahmadnagar, Maharashtra, India, Audumbar Colony, 10, Balikashram Rd, Borude Mala, & :, Ahmadnagar, Maharashtra 414003, India =",None,0
frame_00425.jpg,19.115408,74.727843,"<3 crs Pe |, “== Ahmadnagar, Maharashtra, India, 38 4p8h+459, Balikashram Rd, Near Nucleus Hospital,, Savedi, Anmadnagar, Maharashtra 414001, India",cracks: 1,1
frame_00426.jpg,19.116029,74.727589,"Ahmadnagar, MaharasnNtra, India, 4p8h+g3c, Balikashram Rd, Mahavir Nagar,, Ahmadnagar, Maharashtra 414001, India",cracks: 1,1
frame_00427.jpg,19.116416,74.727428,"aan Aes), on A \ +, Ahmadnagar, Maharashtra, India, 13, Balikashram Rd, Mahavir Nagar, Anmadnagar,, Maharashtra 414003, India",cracks: 2,2
frame_00428.jpg,19.116542,74.727388,"5, Balikashram Rd, Sai Colony, Borude Mala,, Ahmadnagar, Maharashtra 414001, India",cracks: 1,1
frame_00429.jpg,19.116542,74.727388,"ss >, esses Her, iN be) need, Ahmadnagar, Maharashtra, India, 5, Balikashram Rd, Sai Colony, Borude Mala,, Ahmadnagar, Maharashtra 414001, India",cracks: 1,1
frame_00430.jpg,19.116542,74.727388,"Ahmadnagar, Maharashtra, India, 5, Balikashram Rd, Sai Colony, Borude Mala,, Ahmadnagar, Maharashtra 414001, India, A Lat 19.116542° Long 74.727388°",None,0
frame_00431.jpg,19.116542,74.727388,"Ahmadnagar, Maharashtra, India |, 5, Balikashram Rd, Sai Colony, Borude Mala,, s Ahmadnagar, Maharashtra 414001, India",None,0
frame_00432.jpg,19.116661,74.727359,"Ahmadnagar, Maharashtra, India, 5, Balikashram Rd, Sai Colony, Borude Mala,, Ahmadnagar, Maharashtra 414001, India",None,0
frame_00433.jpg,19.104413,74.730674,"Ahmadnagar, Maharashtra, India, 4p3j+q6h, Sudke Mala, Ahmadnagar, Maharashtra, 414001, India",None,0
frame_00434.jpg,19.104413,74.730674,"Ahmadnagar, Maharashtra, India, 4p3j+q6h, Sudke Mala, Anmadnagar, Maharashtra, 414001, India",None,0
frame_00435.jpg,19.104413,74.730674,"Ahmadnagar, Maharashtra, India, 4p3j+q6h, Sudke Mala, Anmadnagar, Maharashtra, 414001, India",None,0
frame_00436.jpg,19.104648,74.73059,"+ Ahmadnagar, Maharashtra, India, 1/1, Balikashram Rd, Bagade Mala, Ahmadnagar,, Maharashtra 414001, India",cracks: 1,1
frame_00437.jpg,19.104648,74.73059,"ae See, _ Pa - oe 3B ‘sa), ng), J 7 bath “a a, Ahmadnagar, Maharashtra, India, 1/1, Balikashram Rd, Bagade Mala, Ahmadnagar,, Maharashtra 414001, India",cracks: 2,2
frame_00438.jpg,19.104648,74.73059,"Ahmadnagar, Maharashtra, India, 1/1, Balikashram Rd, Bagade Mala, Ahmadnagar,, Maharashtra 414001, India",cracks: 1,1
frame_00439.jpg,19.104648,74.73059,"Aaah Py eres, = we tara, = eet Ahmadnagar, Maharashtra, India, ee Sigs eg 1/1, Balikashram Rd, Bagade Mala, Ahmadnagar,, Festa 55 Maharashtra 414001, India, a) ) Lat 19.104648° Long 74.73059°, ei Ss fe a e 7",cracks: 1,1
frame_00440.jpg,19.104648,74.73059,"“Go, 3 ona? ats, St Ahmadnagar, MaharasNtra, India, VRE, Be eT eee » 1/1, Balikashram Rd, Bagade Mala, Ahmadnagar,, 5 ratte, 5-988. 7"" Maharashtra 414001, India, eartt Leet, sein, ogl, he 2s gle. ry a",cracks: 1,1
frame_00441.jpg,19.104648,74.73059,"aa | as se ee., ceo, Ahmadnagar, Maharashtra, India, 1/1, Balikashram Rd, Bagade Mala, Ahmadnagar,, Maharashtra 414001, India",cracks: 1,1
frame_00442.jpg,19.104648,74.73059,"= al Ahmadnagar, MaharasnNtra, India §, d Ff siee ~ 1/1, Balikashram Rd, Bagade Mala, Ahmadnagar,, “ai 1s _ Maharashtra 414001, India, ~~ CSaqis Y Lat 19.104648° Long 74.73059°, Gee Pk gle... Rr",cracks: 1,1
frame_00443.jpg,19.104648,74.73059,"Ahmadnagar, Maharashtra, India, : ra bans 1/1, Balikashram Rd, Bagade Mala, Ahmadnagar,, Bes a = _ Maharashtra 414001, India, Zse z gles. Sel i",None,0
frame_00444.jpg,19.104648,74.73059,"Sa Ahmadnagar, Maharashtra, India, )~ 1/1, Balikashram Rd, Bagade Mala, Ahmadnagar,, alge at Maharashtra 414001, India, ""y Lat 19.104648° Long 74.73059°, ""er edt rl b",None,0
frame_00445.jpg,19.104648,74.73059,"~+ Ahmadnagar, Maharashtra, India, 3 Sen its =, . ~ SEEN e ae a oo ag Saleh PO —— : 5, A ~ mA 7 . ee its dane Gnand . ey . -, See §gBSSSS TAPE TT poke : eC : Ee, oS - » Ys MAY ab TS oe, te eas = oe FOO 2, a Re,, 1/1, Balikashram Rd, Bagade Mala, Ahmadnagar,, Maharashtra 414001, India",cracks: 1,1
frame_00446.jpg,19.104648,74.73059,"TINNTI|, Sane, | Sy st, Ahmadnagar, Maharashtra, India, 1/1, Balikashram Rd, Bagade Mala, Ahmadnagar,, Maharashtra 414001, India",None,0
frame_00447.jpg,19.104648,74.73059,"Bim, Soa, 6. MES Fit,, Ahmadnagar, Maharashtra, India, 1/1, Balikashram Rd, Bagade Mala, Ahmadnagar,, Maharashtra 414001, India",None,0
frame_00448.jpg,19.104767,74.730553,"Ahmadnagar, Maharashtra, India, 1/1, Balikashram Rd, Bagade Mala, Ahmadnagar,, Maharashtra 414001, India, & OES",cracks: 1,1
frame_00449.jpg,19.104767,74.730553,"Ahmadnagar, Maharashtra, India, 1/1, Balikashram Rd, Bagade Mala, Ahmadnagar,, Maharashtra 414001, India",None,0
